index,latitude,longitude,height,home_distance,vps_altitude,time_seconds,speed_x,speed_y,speed_z,pitch,roll,yaw,satellite_count,flight_mode,is_motor_on,is_flying,battery_percent,battery_voltage,cell_1,cell_2,cell_3,cell_4,message
2,38.38466804060338,24.17441096816219,0.0,0.0,0.0,0.3,0.0,0.0,0.0,4.3,0.8,125.7,208,26,False,True,0.0,0.0,0.0,0.0,0.0,0.0,
3,38.3846680466028,24.174410952808802,0.0,0.0014952795990602497,0.0,0.5,0.0,0.0,0.0,4.3,0.8,125.7,208,26,False,True,0.0,0.0,0.0,0.0,0.0,0.0,
4,38.38466805052989,24.17441093801943,0.0,0.002849723102754857,0.0,0.7,0.0,0.0,0.0,4.3,0.8,125.7,208,26,False,True,0.0,0.0,0.0,0.0,0.0,0.0,
5,38.38466805330864,24.174410924302066,0.0,0.004075594183274869,0.0,0.9,0.0,0.0,0.0,4.3,0.8,125.7,208,26,False,True,0.0,0.0,0.0,0.0,0.0,0.0,
6,38.384668055657045,24.174410913369456,0.0,0.005060650964704341,0.0,1.1,0.0,0.0,0.0,4.3,0.8,125.7,208,26,False,True,0.0,0.0,0.0,0.0,0.0,0.0,
7,38.38466805717226,24.17441106720377,0.0,0.008826996476486921,0.0,1.3,0.0,0.0,0.0,4.3,0.8,125.7,208,26,False,True,0.0,0.0,0.0,0.0,0.0,0.0,
8,38.38466789623784,24.174411053344528,0.0,0.01768655692709966,0.0,1.5,0.0,0.0,0.0,4.3,0.8,125.7,208,26,False,True,0.0,0.0,0.0,0.0,0.0,0.0,
9,38.38466790285487,24.174411039961242,0.0,0.01654606388096544,0.0,1.7,0.0,0.0,0.0,4.3,0.8,125.80000000000001,208,26,False,False,0.0,0.0,0.0,0.0,0.0,0.0,
10,38.38466774848992,24.17441102584977,0.0,0.03286840589384321,0.0,1.9,0.0,0.0,0.0,4.3,0.8,125.7,208,26,False,False,0.0,0.0,0.0,0.0,0.0,0.0,
11,38.38466776390022,24.17441101356155,0.0,0.03102140265584121,0.0,2.1,0.0,0.0,0.0,4.3,0.8,125.7,208,26,False,False,0.0,0.0,0.0,0.0,0.0,0.0,
12,38.384667782001856,24.17441100511214,0.0,0.028934970469173614,0.0,2.3,0.0,0.0,0.0,4.3,0.8,125.7,208,26,False,False,0.0,0.0,0.0,0.0,0.0,0.0,
13,38.384667794551575,24.17441099642226,0.0,0.027470368177597355,0.0,2.5,0.0,0.0,0.0,4.3,0.9,125.7,208,26,False,False,0.0,0.0,0.0,0.0,0.0,0.0,
14,38.384667802015514,24.174410988958403,0.0,0.026591611124444765,0.0,2.7,0.0,0.0,0.0,3.8000000000000003,0.9,125.9,208,26,False,False,0.0,0.0,0.0,0.0,0.0,0.0,
15,38.384667802110386,24.17441097364979,0.0,0.026523524059992098,0.0,2.9,0.0,0.0,-0.01,-1.9000000000000001,0.4,127.9,208,28,False,False,0.0,0.0,0.0,0.0,0.0,0.0,
16,38.38466772935655,24.17441107914752,0.0,0.03593558777466582,0.0,3.1,0.0,0.0,-0.05,-0.4,0.0,126.7,208,28,False,False,0.0,0.0,0.0,0.0,0.0,0.0, Iቩdx ded. Return-to-Home Altitude:70.0 m
17,38.384667513163386,24.174411249811186,0.2,0.06357917338491881,0.0,3.3,0.0,0.0,-0.11,2.4000000000000004,0.0,125.9,208,28,False,False,0.0,0.0,0.0,0.0,0.0,0.0,
19,38.384667284907245,24.174411092524274,0.9,0.0847258257513058,0.0,3.7,0.0,0.0,-0.21,0.1,-1.1,125.7,208,28,False,False,0.0,0.0,0.0,0.0,0.0,0.0,
20,38.38466759103906,24.174411582386384,1.4000000000000001,0.07324675453330164,0.0,3.9,0.0,0.0,-0.22,0.5,-1.1,125.60000000000001,208,28,False,False,0.0,0.0,0.0,0.0,0.0,0.0,
21,38.38466775919242,24.174412160091233,1.9000000000000001,0.10850016169188093,0.0,4.1,0.0,0.0,-0.22,1.8,0.30000000000000004,125.7,208,28,False,False,0.0,0.0,0.0,0.0,0.0,0.0,
22,38.38466767861751,24.174412165330867,2.3000000000000003,0.11184083109318683,0.0,4.3,0.0,0.0,-0.2,-1.7000000000000002,-0.7000000000000001,125.80000000000001,208,28,False,False,0.0,0.0,0.0,0.0,0.0,0.0,
23,7.143645476571745e-12,2.896055338292027e-72,2.7,4931179.591624826,0.0,4.5,-0.01,0.01,-0.16,-15.4,-1.1,126.0,208,28,False,False,0.0,0.0,0.0,0.0,0.0,0.0,
24,38.384666953524466,24.17441333320477,2.9000000000000004,0.23896674122520667,0.0,4.7,-0.04,0.05,-0.06,-27.400000000000002,-2.0,126.30000000000001,208,28,False,False,0.0,0.0,0.0,0.0,0.0,0.0,
25,38.38466572012445,24.174415146716203,3.0,0.44634573022670915,0.0,4.9,-0.08,0.11,0.0,-29.5,-1.9000000000000001,126.5,208,28,False,False,0.0,0.0,0.0,0.0,0.0,0.0,
26,38.384663031900395,24.174418321596093,2.9000000000000004,0.8491063064105037,0.0,5.1,-0.14,0.19,0.01,-27.1,-2.7,127.4,208,28,False,False,0.0,0.0,0.0,0.0,0.0,0.0,
27,38.3846587862606,24.17442299517201,3.0,1.468953559937529,0.0,5.3,-0.21,0.27,-0.05,-18.400000000000002,-1.1,128.70000000000002,208,28,False,False,0.0,0.0,0.0,0.0,0.0,0.0,
28,38.384653631286135,24.174429202163918,3.2,2.2567787685448715,0.0,5.5,-0.27,0.33,-0.14,-17.0,-1.7000000000000002,129.8,208,28,False,False,0.0,0.0,0.0,0.0,0.0,0.0,
29,38.38464718498961,24.174436532934273,3.6,3.2160640949316575,0.0,5.7,-0.33,0.38,-0.25,-13.4,-1.6,131.1,208,28,False,False,0.0,0.0,0.0,0.0,0.0,0.0,
30,38.384639495828125,24.174444088711645,4.4,4.290485811431857,0.0,5.9,-0.38,0.4,-0.35000000000000003,-10.700000000000001,-1.1,133.8,208,28,False,False,0.0,0.0,0.0,0.0,0.0,0.0,
31,38.384631458459516,24.174452141493457,5.4,5.424525867781944,0.0,6.1,-0.4,0.4,-0.33,0.9,-2.1,134.6,208,28,False,False,0.0,0.0,0.0,0.0,0.0,0.0,
32,38.38462392101855,24.17446014588693,5.7,6.51465674058643,0.0,6.3,-0.38,0.39,-0.25,19.8,-1.6,134.5,208,28,False,False,0.0,0.0,0.0,0.0,0.0,0.0,
34,38.38461034667994,24.1744735402329,6.300000000000001,8.420231443515528,0.0,6.7,-0.3,0.3,-0.04,29.700000000000003,-2.7,133.3,208,28,False,False,0.0,0.0,0.0,0.0,0.0,0.0,
35,38.38460539333396,24.174479127264615,6.4,9.155297140109734,0.0,6.9,-0.23,0.23,0.0,30.200000000000003,-2.0,133.20000000000002,208,28,False,False,0.0,0.0,0.0,0.0,0.0,0.0,
36,38.3846019502992,24.174482898996082,6.4,9.659921475583056,0.0,7.1,-0.15,0.15,0.0,27.8,-8.8,131.8,208,28,False,False,0.0,0.0,0.0,0.0,0.0,0.0,
37,38.3846003670583,24.174485141131562,6.4,9.920750473043709,0.0,7.3,-0.06,0.09,0.0,20.900000000000002,-9.5,132.70000000000002,208,28,False,False,0.0,0.0,0.0,0.0,0.0,0.0,
39,38.38460022776176,24.174487603032514,6.4,10.073491884598065,0.0,7.7,0.0,0.02,0.0,5.7,1.1,134.70000000000002,208,28,False,False,0.0,0.0,0.0,0.0,0.0,0.0,
40,38.38460002556898,24.174488441532887,6.4,10.138860833505651,0.0,7.9,0.0,0.01,0.01,3.1,0.0,138.4,208,28,False,False,0.0,0.0,0.0,0.0,0.0,0.0,
41,38.38459985227124,24.174488946712863,6.4,10.182580773412456,0.0,8.1,0.0,0.0,0.01,2.2,-1.1,150.1,208,28,False,False,0.0,0.0,0.0,0.0,0.0,0.0,
42,38.384599748105906,24.174489417308887,6.4,10.218609646506742,0.0,8.3,0.0,0.0,0.01,3.6,-1.8,162.20000000000002,208,28,False,False,0.0,0.0,0.0,0.0,0.0,0.0,
44,38.38460043728321,24.174490461154587,6.4,10.223233199418017,0.0,8.7,0.0,0.0,0.0,2.6,0.6000000000000001,174.5,208,28,False,False,0.0,0.0,0.0,0.0,0.0,0.0,
45,38.38460074068159,24.174490843708913,6.4,10.2211352146621,0.0,8.9,0.0,0.0,0.0,1.3,0.4,-173.70000000000002,208,28,False,False,0.0,0.0,0.0,0.0,0.0,0.0,
46,38.38460101327879,24.174490975208727,6.4,10.206791032300432,0.0,9.1,0.0,0.0,0.0,-0.30000000000000004,1.8,-161.8,208,28,False,False,0.0,0.0,0.0,0.0,0.0,0.0,
47,38.38460096090266,24.174491031371357,6.4,10.214388271475835,0.0,9.3,0.0,0.0,0.0,0.6000000000000001,2.2,-149.8,208,28,False,False,0.0,0.0,0.0,0.0,0.0,0.0,
48,38.38460106411283,24.174491141631165,6.4,10.212584310033249,0.0,9.5,-0.01,0.0,0.0,1.1,2.5,-137.8,208,28,False,False,0.0,0.0,0.0,0.0,0.0,0.0,
49,38.38460125408108,24.174490955394848,6.4,10.186073245735008,0.0,9.7,-0.01,0.0,0.0,1.7000000000000002,2.6,-125.80000000000001,208,28,False,False,0.0,0.0,0.0,0.0,0.0,0.0,
50,38.38460133562639,24.174490595397394,6.4,10.157999828825256,0.0,9.9,-0.01,0.0,0.0,2.1,3.1,-113.7,208,28,False,False,0.0,0.0,0.0,0.0,0.0,0.0,
51,38.38460143386797,24.174490070256077,6.4,10.118783061308651,0.0,10.1,0.0,0.0,0.0,1.9000000000000001,3.4000000000000004,-102.2,208,28,False,False,0.0,0.0,0.0,0.0,0.0,0.0,
52,38.384601544890906,24.174489799988887,6.4,10.09370007584863,0.0,10.3,0.0,0.0,0.0,1.6,3.6,-99.0,208,28,False,False,0.0,0.0,0.0,0.0,0.0,0.0,
53,38.38460181618176,24.174489503749584,6.4,10.054025592016933,0.0,10.5,0.0,0.0,0.0,1.3,3.3000000000000003,-99.10000000000001,208,28,False,False,0.0,0.0,0.0,0.0,0.0,0.0,
54,38.38460214997009,24.174489448472134,6.4,10.023584428912534,0.0,10.7,0.0,0.0,0.0,0.7000000000000001,2.3000000000000003,-99.10000000000001,208,28,False,False,0.0,0.0,0.0,0.0,0.0,0.0,
55,38.38460255740532,24.174489621074855,6.4,10.000823645833677,0.0,10.9,0.0,0.0,0.0,0.5,1.3,-99.30000000000001,208,28,False,False,0.0,0.0,0.0,0.0,0.0,0.0,
56,38.38460279249379,24.17448954074331,6.4,9.976999718578659,0.0,11.1,0.0,0.0,0.0,1.6,6.800000000000001,-99.10000000000001,208,28,False,False,0.0,0.0,0.0,0.0,0.0,0.0,
57,38.38460346631118,24.174489568332852,6.4,9.924307457969617,0.0,11.3,0.02,0.0,0.0,1.9000000000000001,11.9,-98.60000000000001,208,28,False,False,0.0,0.0,0.0,0.0,0.0,0.0,
58,38.384604606592326,24.174489332715098,6.4,9.818663213281381,0.0,11.5,0.06,0.0,0.0,1.5,14.200000000000001,-98.5,208,28,False,False,0.0,0.0,0.0,0.0,0.0,0.0,
59,38.384606438093726,24.174489190024236,6.4,9.664621940213825,0.0,11.7,0.1,-0.01,0.0,0.9,17.900000000000002,-98.7,208,28,False,False,0.0,0.0,0.0,0.0,0.0,0.0,
60,38.38460924799319,24.174489126582948,6.4,9.441754119174574,0.0,11.9,0.16,-0.01,0.0,0.30000000000000004,23.400000000000002,-99.2,208,28,False,False,0.0,0.0,0.0,0.0,0.0,0.0,
61,38.38461321760673,24.174488889511593,6.4,9.126290694816147,0.0,12.1,0.23,-0.03,0.0,0.0,28.700000000000003,-99.9,208,28,False,False,0.0,0.0,0.0,0.0,0.0,0.0,
62,38.38461827839308,24.174488144369537,6.4,8.710164244242643,0.0,12.3,0.31,-0.05,0.0,-4.2,28.400000000000002,-101.60000000000001,208,28,False,False,0.0,0.0,0.0,0.0,0.0,0.0,
63,38.38462445851023,24.174486893757503,6.5,8.202416001987368,0.0,12.5,0.36,-0.11,-0.01,-12.9,13.0,-106.5,208,28,False,False,0.0,0.0,0.0,0.0,0.0,0.0,
64,38.384631036977225,24.1744845805094,6.5,7.622135898196623,0.0,12.7,0.37,-0.14,0.0,-0.9,21.400000000000002,-110.4,208,28,False,False,0.0,0.0,0.0,0.0,0.0,0.0,
65,38.38463827010122,24.17448156542754,6.5,6.987269009806762,0.0,12.9,0.4,-0.16,0.0,-0.6000000000000001,12.100000000000001,-110.0,208,28,False,False,0.0,0.0,0.0,0.0,0.0,0.0,
66,38.38464574630761,24.17447844825648,6.6000000000000005,6.3827334317940165,0.0,13.1,0.38,-0.16,0.0,-1.4000000000000001,-17.3,-109.9,208,28,False,False,0.0,0.0,0.0,0.0,0.0,0.0,
67,38.384651764021775,24.174475759240046,6.6000000000000005,5.930202096952209,0.0,13.3,0.28,-0.13,0.0,0.6000000000000001,-29.8,-109.60000000000001,208,28,False,False,0.0,0.0,0.0,0.0,0.0,0.0,
69,38.384657834413005,24.174473236056503,6.6000000000000005,5.5447296349191575,0.0,13.7,0.07,-0.05,0.0,5.5,-17.0,-109.2,208,28,False,False,0.0,0.0,0.0,0.0,0.0,0.0,
70,38.38465866460648,24.174473040951934,6.6000000000000005,5.50987467050369,0.0,13.9,0.0,0.0,-0.08,5.5,-3.8000000000000003,-109.4,208,28,False,False,0.0,0.0,0.0,0.0,0.0,0.0,
71,38.38465883167916,24.1744733401749,6.9,5.532017505579337,0.0,14.1,0.0,0.01,-0.19,2.0,4.7,-110.5,208,28,False,False,0.0,0.0,0.0,0.0,0.0,0.0,
72,38.38465924159842,24.174473235778258,7.4,5.514806778657307,0.0,14.3,0.0,0.0,-0.26,1.0,5.4,-110.60000000000001,208,28,False,False,0.0,0.0,0.0,0.0,0.0,0.0,
74,38.38465997378351,24.174472013860047,8.0,5.39589559406363,0.0,14.7,0.0,0.0,-0.08,3.0,3.6,-110.4,208,28,False,False,0.0,0.0,0.0,0.0,0.0,0.0,
75,38.38465984718363,24.174471845667025,8.1,5.383804538365568,0.0,14.9,0.0,0.0,-0.01,2.6,2.2,-110.60000000000001,208,28,False,False,0.0,0.0,0.0,0.0,0.0,0.0,
76,38.38465970648566,24.174471730325347,8.1,5.376570958715052,0.0,15.1,0.0,0.0,0.0,2.9000000000000004,3.4000000000000004,-114.7,208,28,False,False,0.0,0.0,0.0,0.0,0.0,0.0,
77,38.38465967516463,24.17447172956581,8.1,5.377107138799203,0.0,15.3,0.0,0.0,0.0,3.5,3.3000000000000003,-115.10000000000001,208,28,False,False,0.0,0.0,0.0,0.0,0.0,0.0,
79,38.38465974386996,24.174471675944105,8.1,5.371186465118791,0.0,15.7,0.0,0.0,0.0,3.5,3.4000000000000004,-115.2,208,28,False,False,0.0,0.0,0.0,0.0,0.0,0.0,
80,38.384659801270075,24.174471798711867,8.1,5.380637888166471,0.0,15.9,0.0,0.0,0.0,3.1,3.2,-115.10000000000001,208,28,False,False,0.0,0.0,0.0,0.0,0.0,0.0,
81,38.384659853657936,24.17447181252577,8.1,5.380835745364991,0.0,16.1,0.0,0.0,0.0,3.0,3.2,-115.0,208,28,False,False,0.0,0.0,0.0,0.0,0.0,0.0,
82,38.384660049727735,24.174471904408954,8.1,5.385088862782337,0.0,16.3,0.0,0.0,0.0,3.0,3.5,-115.0,208,28,False,False,0.0,0.0,0.0,0.0,0.0,0.0,
83,38.38466009224515,24.174471961451392,8.1,5.389215313175996,0.0,16.5,0.0,0.0,0.0,3.8000000000000003,3.2,-114.80000000000001,208,28,False,False,0.0,0.0,0.0,0.0,0.0,0.0,
84,38.384660007898574,24.174472049307358,8.1,5.398313309763493,0.0,16.7,0.0,0.0,0.0,4.0,3.6,-114.80000000000001,208,28,False,False,0.0,0.0,0.0,0.0,0.0,0.0,
85,38.38466015284074,24.174472023870766,8.1,5.393482466477879,0.0,16.9,0.0,0.0,0.0,4.1000000000000005,3.4000000000000004,-114.80000000000001,208,28,False,False,0.0,0.0,0.0,0.0,0.0,0.0,
86,38.38466032221425,24.17447185319696,8.1,5.3757659701492555,0.0,17.1,0.0,0.0,0.0,4.1000000000000005,3.6,-114.80000000000001,208,28,False,False,0.0,0.0,0.0,0.0,0.0,0.0,
87,38.38466015275173,24.174471842874773,8.1,5.377918852253266,0.0,17.3,0.0,0.0,0.0,4.800000000000001,3.4000000000000004,-114.7,208,28,False,False,0.0,0.0,0.0,0.0,0.0,0.0,
88,38.38466017341327,24.174471681987647,8.1,5.363708793520642,0.0,17.5,0.0,0.0,0.0,5.300000000000001,3.4000000000000004,-114.60000000000001,208,28,False,False,0.0,0.0,0.0,0.0,0.0,0.0,
89,38.38466037208062,24.174471632218292,8.1,5.3558675367761275,0.0,17.7,0.0,0.0,0.0,4.800000000000001,3.1,-114.60000000000001,208,28,False,False,0.0,0.0,0.0,0.0,0.0,0.0,
90,38.384660395292045,24.17447178791976,8.1,5.368856713637503,0.0,17.9,0.0,0.0,0.0,4.3,3.1,-114.7,208,28,False,False,0.0,0.0,0.0,0.0,0.0,0.0,
91,38.384660373912254,24.174471880682738,8.1,5.3772165838390755,0.0,18.1,0.0,0.0,0.0,4.3,3.5,-114.7,208,28,False,False,0.0,0.0,0.0,0.0,0.0,0.0,
92,38.38466050286236,24.174471916802148,8.1,5.3780717224220576,0.0,18.3,0.0,0.0,0.0,3.7,4.0,-114.80000000000001,208,28,False,False,0.0,0.0,0.0,0.0,0.0,0.0,
93,38.384660536418494,24.174471854748855,8.1,5.372148411032461,0.0,18.5,0.0,0.0,0.0,3.1,3.3000000000000003,-114.7,208,28,False,False,0.0,0.0,0.0,0.0,0.0,0.0,
94,38.38466060002538,24.17447188472632,8.1,5.373636080488701,0.0,18.7,0.0,0.0,0.0,3.5,2.4000000000000004,-114.80000000000001,208,28,False,False,0.0,0.0,0.0,0.0,0.0,0.0,
95,38.38466091769327,24.17447194368675,8.1,5.373393871252213,0.0,18.9,0.0,0.0,0.0,3.2,1.5,-114.80000000000001,208,28,False,False,0.0,0.0,0.0,0.0,0.0,0.0,
96,38.38466096163902,24.17447190986237,8.0,5.369759428773601,0.0,19.1,0.0,0.0,0.0,3.3000000000000003,0.9,-114.9,208,28,False,False,0.0,0.0,0.0,0.0,0.0,0.0,
97,38.38466108738037,24.174471941058393,8.0,5.370418414871319,0.0,19.3,0.0,0.0,0.0,3.3000000000000003,1.2000000000000002,-115.10000000000001,208,28,False,False,0.0,0.0,0.0,0.0,0.0,0.0,
98,38.38466105120983,24.17447198411209,8.0,5.374712069230084,0.0,19.5,0.0,0.0,0.0,3.7,2.0,-115.0,208,28,False,False,0.0,0.0,0.0,0.0,0.0,0.0,
99,38.38466125829224,24.174472022291564,8.0,5.374725571368858,0.0,19.7,0.0,0.0,0.0,3.4000000000000004,1.9000000000000001,-115.0,208,28,False,False,0.0,0.0,0.0,0.0,0.0,0.0,
100,38.38466116884077,24.174471858005596,8.0,5.3619566415836895,0.0,19.9,0.0,0.0,0.0,4.1000000000000005,2.2,-114.9,208,28,False,False,0.0,0.0,0.0,0.0,0.0,0.0,
101,38.38466127504231,24.17447187719645,8.0,5.361942678653277,0.0,20.1,0.0,0.0,0.0,4.800000000000001,2.0,-114.5,208,28,False,False,0.0,0.0,0.0,0.0,0.0,0.0,
102,38.38466130078598,24.17447201481637,8.0,5.373419422230941,0.0,20.3,0.0,0.0,0.0,3.2,2.1,-114.7,208,28,False,False,0.0,0.0,0.0,0.0,0.0,0.0,
103,38.384661361690384,24.17447215885688,8.0,5.384913569608735,0.0,20.5,0.0,0.0,0.0,2.0,2.3000000000000003,-114.9,208,28,False,False,0.0,0.0,0.0,0.0,0.0,0.0,
104,38.38466139206828,24.174472288608033,8.0,5.395651136989974,0.0,20.7,0.0,0.0,0.0,2.3000000000000003,2.1,-114.9,208,28,False,False,0.0,0.0,0.0,0.0,0.0,0.0,
105,38.38466154095068,24.17447226773966,8.0,5.391605286071956,0.0,20.9,0.0,0.0,0.0,1.9000000000000001,2.0,-115.0,208,28,False,False,0.0,0.0,0.0,0.0,0.0,0.0,
106,38.38466165493977,24.17447224358717,8.0,5.387834064896728,0.0,21.1,0.0,0.0,-0.01,2.1,0.6000000000000001,-115.10000000000001,208,28,False,False,0.0,0.0,0.0,0.0,0.0,0.0,
107,38.38466186027457,24.174472137797164,8.1,5.3757273476287395,0.0,21.3,0.0,0.0,-0.11,2.4000000000000004,1.0,-115.0,208,28,False,False,0.0,0.0,0.0,0.0,0.0,0.0,
108,38.38466186386182,24.174472077109996,8.4,5.3704301952672875,0.0,21.5,0.0,0.0,-0.17,4.3,1.5,-114.80000000000001,208,28,False,False,0.0,0.0,0.0,0.0,0.0,0.0,
109,38.38466158080425,24.174471805345565,8.700000000000001,5.351072249741573,0.0,21.7,0.0,0.0,-0.11,5.1000000000000005,2.5,-114.80000000000001,208,28,False,False,0.0,0.0,0.0,0.0,0.0,0.0,
110,38.384661217942806,24.17447162776482,8.8,5.341315929604917,0.0,21.9,0.0,0.0,-0.03,3.7,2.7,-114.80000000000001,208,28,False,False,0.0,0.0,0.0,0.0,0.0,0.0,
111,38.38466141239943,24.174471538755853,8.9,5.330603974396217,0.0,22.1,0.0,0.0,0.0,2.9000000000000004,2.4000000000000004,-114.80000000000001,208,28,False,False,0.0,0.0,0.0,0.0,0.0,0.0,
112,38.38466164767555,24.17447174322127,8.8,5.3447124190534385,0.0,22.3,0.0,0.0,0.0,4.6000000000000005,2.0,-114.9,208,28,False,False,0.0,0.0,0.0,0.0,0.0,0.0,
113,38.384661592896045,24.174471954336955,8.8,5.363761387720137,0.0,22.5,0.0,0.01,0.0,16.3,0.2,-115.0,208,28,False,False,0.0,0.0,0.0,0.0,0.0,0.0,
114,38.3846619183935,24.17447292473595,8.8,5.442950117010701,0.0,22.7,0.02,0.07,0.0,25.6,-0.30000000000000004,-114.7,208,28,False,False,0.0,0.0,0.0,0.0,0.0,0.0,
115,38.38466279820175,24.174475995445068,8.9,5.69775492450479,0.0,22.9,0.05,0.16,-0.06,24.200000000000003,-0.9,-114.9,208,28,False,False,0.0,0.0,0.0,0.0,0.0,0.0,
116,38.38466455410026,24.17448130649156,9.200000000000001,6.1430197920482446,0.0,23.1,0.08,0.25,-0.16,19.1,-3.5,-115.0,208,28,False,False,0.0,0.0,0.0,0.0,0.0,0.0,
117,38.38466610081836,24.17448823035997,9.700000000000001,6.737720560127402,0.0,23.3,0.09,0.33,-0.27,19.200000000000003,-2.2,-113.5,208,28,False,False,0.0,0.0,0.0,0.0,0.0,0.0,
119,38.38466895875502,24.174506672557108,12.100000000000001,8.342336086838621,0.0,23.7,0.1,0.44,-0.48,17.7,-0.9,-113.7,208,28,False,False,0.0,0.0,0.0,0.0,0.0,0.0,
120,38.38467063085488,24.17451771363012,13.9,9.308521627371842,0.0,23.9,0.11,0.5,-0.55,21.3,-0.9,-113.7,208,28,False,False,0.0,0.0,0.0,0.0,0.0,0.0,
121,38.3846725130913,24.174530076518035,15.5,10.393533615145248,0.0,24.1,0.12,0.55,-0.59,20.400000000000002,-0.7000000000000001,-114.4,208,28,False,False,0.0,0.0,0.0,0.0,0.0,0.0,
122,38.38467428877635,24.17454375766743,17.0,11.594927992348513,0.0,24.3,0.13,0.59,-0.6,20.900000000000002,-1.6,-114.5,208,12,False,False,0.0,0.0,0.0,0.0,0.0,0.0,
123,-3.358915296333865e-191,4.1681409417012817e-299,18.5,4931179.591625531,0.0,24.5,0.14,0.63,-0.59,22.0,-2.2,-114.9,208,12,False,False,0.0,0.0,0.0,0.0,0.0,0.0,
124,38.38467838056017,24.17457322314348,19.8,14.188999921510618,0.0,24.7,0.15,0.67,-0.59,22.1,-2.7,-115.4,208,12,False,False,0.0,0.0,0.0,0.0,0.0,0.0,
125,38.384680506408,24.17458947701158,21.1,15.620669346286975,0.0,24.9,0.15,0.7000000000000001,-0.59,22.400000000000002,-3.8000000000000003,-115.80000000000001,208,12,False,False,0.0,0.0,0.0,0.0,0.0,0.0,
126,38.38468256465585,24.174606574117732,22.3,17.12557132266622,0.0,25.1,0.15,0.74,-0.6,21.900000000000002,-3.6,-115.7,208,12,False,False,0.0,0.0,0.0,0.0,0.0,0.0,
127,38.384684787359724,24.174624344536298,23.400000000000002,18.691134388064306,0.0,25.3,0.16,0.78,-0.59,22.6,-3.6,-115.9,208,12,False,False,0.0,0.0,0.0,0.0,0.0,0.0,
129,38.38468964461307,24.174662624849272,25.6,22.065853190595174,0.0,25.7,0.17,0.84,-0.59,21.3,-2.8000000000000003,-115.30000000000001,208,12,False,False,0.0,0.0,0.0,0.0,0.0,0.0,
130,38.384692137743464,24.174682810629772,26.700000000000003,23.84514088988628,0.0,25.9,0.17,0.87,-0.59,20.0,-0.4,-115.10000000000001,208,12,False,False,0.0,0.0,0.0,0.0,0.0,0.0,
131,38.38469464966466,24.17470315201311,27.6,25.638396575152886,0.0,26.1,0.17,0.86,-0.61,3.2,4.3,-115.60000000000001,208,12,False,False,0.0,0.0,0.0,0.0,0.0,0.0,
132,38.38469723038184,24.17472215908667,28.5,27.317284498674212,0.0,26.3,0.16,0.77,-0.63,-22.900000000000002,14.0,-118.7,208,12,False,False,0.0,0.0,0.0,0.0,0.0,0.0,
134,38.38470144404314,24.17474869641431,30.200000000000003,29.670204948037764,0.0,26.7,0.12,0.45,-0.6,-25.700000000000003,15.600000000000001,-119.30000000000001,208,12,False,False,0.0,0.0,0.0,0.0,0.0,0.0,
135,38.384703663623775,24.17475664646881,31.0,30.388997639274745,0.0,26.9,0.09,0.28,-0.59,-27.3,12.600000000000001,-118.7,208,12,False,False,0.0,0.0,0.0,0.0,0.0,0.0,
136,38.384705652025986,24.174761310232945,32.0,30.82129632886846,0.0,27.1,0.07,0.14,-0.59,-18.400000000000002,4.6000000000000005,-116.4,208,12,False,False,0.0,0.0,0.0,0.0,0.0,0.0,
137,38.38470730264359,24.17476369831058,33.0,31.052803345460198,0.0,27.3,0.05,0.08,-0.58,-4.4,0.6000000000000001,-115.9,208,12,False,False,0.0,0.0,0.0,0.0,0.0,0.0,
139,38.38471090140091,24.174767439757066,35.1,31.433884257127364,0.0,27.7,0.08,0.03,-0.59,-0.2,14.100000000000001,-115.60000000000001,208,12,False,False,0.0,0.0,0.0,0.0,0.0,0.0,
140,38.384713605356616,24.17476811377463,36.2,31.53885627608499,0.0,27.9,0.11,0.01,-0.6,-2.5,-2.0,-115.4,208,12,False,False,0.0,0.0,0.0,0.0,0.0,0.0,
141,38.38471591812867,24.174768337157687,37.300000000000004,31.600380636582226,0.0,28.1,0.07,0.0,-0.6,-2.9000000000000004,-11.4,-116.10000000000001,208,12,False,False,0.0,0.0,0.0,0.0,0.0,0.0,
142,38.384716981532634,24.174768881036325,38.400000000000006,31.667214889150394,0.0,28.3,0.03,0.01,-0.6,-0.9,-6.800000000000001,-116.9,208,12,False,False,0.0,0.0,0.0,0.0,0.0,0.0,
144,38.384717693676805,24.17476947601754,40.7,31.73198592536064,0.0,28.7,0.0,0.01,-0.59,0.2,0.7000000000000001,-116.2,208,12,False,False,0.0,0.0,0.0,0.0,0.0,0.0,
145,38.38471774215937,24.174769370030834,41.900000000000006,31.723827653690694,0.0,28.9,0.0,0.0,-0.59,1.3,1.3,-116.2,208,12,False,False,0.0,0.0,0.0,0.0,0.0,0.0,
146,38.384717900444116,24.174769327102815,43.0,31.72321442480772,0.0,29.1,0.0,0.0,-0.6,1.7000000000000002,1.2000000000000002,-116.2,208,12,False,False,0.0,0.0,0.0,0.0,0.0,0.0,
147,38.38471784942584,24.17476913381749,44.2,31.705635398009015,0.0,29.3,0.0,0.0,-0.6,0.9,0.8,-116.2,208,12,False,False,0.0,0.0,0.0,0.0,0.0,0.0,
149,38.38471754773221,24.174768581939063,46.5,31.652422154951278,0.0,29.7,0.0,0.0,-0.59,3.0,1.6,-116.2,208,12,False,False,0.0,0.0,0.0,0.0,0.0,0.0,
150,38.384717420539886,24.174768390227495,47.800000000000004,31.633509197223255,0.0,29.9,0.0,0.0,-0.59,3.4000000000000004,1.5,-116.2,208,12,False,False,0.0,0.0,0.0,0.0,0.0,0.0,
151,38.38471715927624,24.1747683372232,49.0,31.623929117833196,0.0,30.1,0.0,0.0,-0.59,4.0,1.4000000000000001,-116.2,208,12,False,False,0.0,0.0,0.0,0.0,0.0,0.0,
152,38.38471689054684,24.174768476870383,50.2,31.630773013628758,0.0,30.3,0.0,0.0,-0.59,3.4000000000000004,1.9000000000000001,-116.30000000000001,208,12,False,False,0.0,0.0,0.0,0.0,0.0,0.0,
154,38.384717078142174,24.174768549546354,52.7,31.640601551089564,0.0,30.7,0.01,0.0,-0.59,2.7,0.6000000000000001,-116.30000000000001,208,12,False,False,0.0,0.0,0.0,0.0,0.0,0.0,
155,38.384717088225024,24.17476846775582,54.0,31.633772546677328,0.0,30.9,0.0,0.0,-0.59,3.2,0.4,-116.30000000000001,208,12,False,False,0.0,0.0,0.0,0.0,0.0,0.0,
156,38.38471711712439,24.174768594834962,55.2,31.645237096552798,0.0,31.1,0.0,0.0,-0.59,3.8000000000000003,0.8,-116.4,208,12,False,False,0.0,0.0,0.0,0.0,0.0,0.0,
157,38.3847169781787,24.17476894016063,56.400000000000006,31.672227504777375,0.0,31.3,0.0,0.0,-0.6,3.2,1.3,-116.30000000000001,208,12,False,False,0.0,0.0,0.0,0.0,0.0,0.0,
159,38.38471693414218,24.174769095457698,58.800000000000004,31.6847216281046,0.0,31.7,0.0,0.0,-0.59,3.4000000000000004,1.7000000000000002,-116.30000000000001,208,12,False,False,0.0,0.0,0.0,0.0,0.0,0.0,
160,38.38471699283185,24.174769104812682,60.0,31.686645319247265,0.0,31.9,0.0,0.0,-0.6,3.6,0.9,-116.4,208,12,False,False,0.0,0.0,0.0,0.0,0.0,0.0,
161,38.384717002936135,24.174769256481444,61.2,31.69986146088544,0.0,32.1,0.0,0.0,-0.6,3.8000000000000003,1.2000000000000002,-116.4,208,12,False,False,0.0,0.0,0.0,0.0,0.0,0.0,
162,38.38471698606853,24.17476948624683,62.400000000000006,31.71926882658803,0.0,32.3,0.0,0.0,-0.6,3.3000000000000003,1.2000000000000002,-116.4,208,12,False,False,0.0,0.0,0.0,0.0,0.0,0.0,
163,-7.839226686455076e-181,-4.989495615821655e-145,63.6,4931179.591625531,0.0,32.5,0.0,0.0,-0.6,3.1,1.1,-116.4,208,12,False,False,0.0,0.0,0.0,0.0,0.0,0.0,
164,38.38471710375194,24.174769763049408,64.7,31.745283946261846,0.0,32.7,0.0,0.0,-0.6,2.8000000000000003,1.5,-116.4,208,12,False,False,0.0,0.0,0.0,0.0,0.0,0.0,
165,38.38471705553494,24.17476982866543,65.9,31.749997260878153,0.0,32.9,0.0,0.0,-0.6,3.0,1.5,-116.4,208,12,False,False,0.0,0.0,0.0,0.0,0.0,0.0,
166,38.384717365953634,24.174770010453738,67.0,31.771547477153156,0.0,33.1,0.0,0.0,-0.6,3.1,0.7000000000000001,-116.4,208,12,False,False,0.0,0.0,0.0,0.0,0.0,0.0,
167,38.38471750060747,24.17477004295574,68.2,31.776925790819035,0.0,33.3,0.0,0.0,-0.6,3.1,0.30000000000000004,-116.5,208,12,False,False,0.0,0.0,0.0,0.0,0.0,0.0,
168,-3.4433818000733597e-292,-4.8059201097874696e-126,69.3,4931179.591625531,0.0,33.5,0.0,0.0,-0.59,2.7,0.0,-116.60000000000001,208,12,False,False,0.0,0.0,0.0,0.0,0.0,0.0,
169,38.384717655722575,24.174770171018487,70.60000000000001,31.79090812920692,0.0,33.7,0.0,0.0,-0.59,2.6,0.1,-116.5,208,12,False,False,0.0,0.0,0.0,0.0,0.0,0.0,
170,38.384717588607664,24.174770257289776,71.8,31.797019645811723,0.0,33.9,0.0,0.0,-0.59,1.9000000000000001,0.9,-116.5,208,12,False,False,0.0,0.0,0.0,0.0,0.0,0.0,
171,38.38471759839501,24.17477028913607,72.9,31.799941995403692,0.0,34.1,0.0,0.0,-0.59,1.3,0.9,-116.5,208,12,False,False,0.0,0.0,0.0,0.0,0.0,0.0,
172,38.38471763392062,24.17477037142932,74.10000000000001,31.807690896167557,0.0,34.3,0.0,0.0,-0.6,1.3,0.5,-116.4,208,12,False,False,0.0,0.0,0.0,0.0,0.0,0.0,
174,38.38471788217589,24.174770476563587,76.3,31.821511851901427,0.0,34.7,0.0,0.0,-0.59,0.5,0.30000000000000004,-116.60000000000001,208,12,False,False,0.0,0.0,0.0,0.0,0.0,0.0,
175,38.38471807578067,24.174770496628714,77.4,31.826990198839443,0.0,34.9,0.0,0.0,-0.6,0.7000000000000001,0.2,-116.5,208,12,False,False,0.0,0.0,0.0,0.0,0.0,0.0,
176,38.38471813191748,24.174770550441725,78.60000000000001,31.832699999679573,0.0,35.1,0.0,0.0,-0.6,0.7000000000000001,0.1,-116.60000000000001,208,12,False,False,0.0,0.0,0.0,0.0,0.0,0.0,
177,38.384718221678135,24.174770469634772,79.80000000000001,31.82751373269075,0.0,35.3,0.0,0.0,-0.6,0.8,-0.1,-116.7,208,12,False,False,0.0,0.0,0.0,0.0,0.0,0.0,
179,38.38471851103587,24.174770453853707,82.10000000000001,31.83181630083929,0.0,35.7,0.0,0.0,-0.6,1.1,-0.6000000000000001,-116.7,208,12,False,False,0.0,0.0,0.0,0.0,0.0,0.0,
180,38.384718552995,24.174770537873698,83.30000000000001,31.8398476006173,0.0,35.9,0.0,0.0,-0.6,1.0,-0.5,-116.80000000000001,208,12,False,False,0.0,0.0,0.0,0.0,0.0,0.0,
181,38.38471861763415,24.174770429854245,84.5,31.831849255484578,0.0,36.1,0.0,0.0,-0.59,1.1,-0.30000000000000004,-116.7,208,12,False,False,0.0,0.0,0.0,0.0,0.0,0.0,
182,38.384718741819604,24.174770450968527,85.60000000000001,31.83610306466777,0.0,36.3,0.0,0.0,-0.6,1.0,-0.2,-116.80000000000001,208,12,False,False,0.0,0.0,0.0,0.0,0.0,0.0,
184,38.38471890452043,24.174770371473024,88.0,31.832493052859153,0.0,36.7,0.0,0.0,-0.58,1.5,-1.2000000000000002,-116.80000000000001,208,12,False,False,0.0,0.0,0.0,0.0,0.0,0.0,
185,38.384718846182004,24.174770332763504,89.0,31.828020744485947,0.0,36.9,0.0,0.0,-0.5,1.6,-1.2000000000000002,-116.80000000000001,208,12,False,False,0.0,0.0,0.0,0.0,0.0,0.0,
186,38.384718931813566,24.17477020054787,89.7,31.818371759358083,0.0,37.1,0.0,0.0,-0.4,2.3000000000000003,-0.9,-116.80000000000001,208,12,False,False,0.0,0.0,0.0,0.0,0.0,0.0,
187,38.38471887390346,24.174770128833618,90.2,31.8110759303761,0.0,37.3,0.0,0.0,-0.3,2.5,-0.4,-116.80000000000001,208,12,False,False,0.0,0.0,0.0,0.0,0.0,0.0,
189,38.384719012262345,24.174769848905424,90.7,31.78980492540624,0.0,37.7,0.0,0.0,-0.07,2.7,-0.9,-116.9,208,12,False,False,0.0,0.0,0.0,0.0,0.0,0.0,
190,38.38471885390049,24.17476996479356,90.7,31.796610316024402,0.0,37.9,0.0,0.0,0.0,2.2,-0.6000000000000001,-116.80000000000001,208,12,False,False,0.0,0.0,0.0,0.0,0.0,0.0,
191,38.38471888444464,24.174770080703553,90.7,31.80715593816538,0.0,38.1,0.0,0.0,0.0,1.7000000000000002,-0.30000000000000004,-116.80000000000001,208,12,False,False,0.0,0.0,0.0,0.0,0.0,0.0,
192,38.384718933972344,24.174770310687506,90.7,31.827861343385603,0.0,38.3,0.0,0.0,0.0,1.6,0.0,-116.80000000000001,208,12,False,False,0.0,0.0,0.0,0.0,0.0,0.0,
194,38.38471899740789,24.17477062222156,90.7,31.855836583730785,0.0,38.7,0.0,0.0,0.0,0.9,-0.30000000000000004,-116.80000000000001,208,12,False,False,0.0,0.0,0.0,0.0,0.0,0.0,
195,38.3847189649748,24.17477060598148,90.7,31.85380236521455,0.0,38.9,0.0,0.0,0.0,1.4000000000000001,-0.30000000000000004,-116.80000000000001,208,12,False,False,0.0,0.0,0.0,0.0,0.0,0.0,
196,38.38471892725614,24.174770636756747,90.7,31.855696817623386,0.0,39.1,0.0,0.0,0.0,1.7000000000000002,-0.4,-116.80000000000001,208,12,False,False,0.0,0.0,0.0,0.0,0.0,0.0,
197,38.38471891902794,24.174770731858455,90.7,31.863691759985226,0.0,39.3,0.0,0.0,0.0,1.8,-0.30000000000000004,-116.80000000000001,208,12,False,False,0.0,0.0,0.0,0.0,0.0,0.0,
198,-4.734223585893643e-131,8.077863591333599e-81,90.7,4931179.591625531,0.0,39.5,0.0,0.0,0.0,1.6,-0.6000000000000001,-116.7,208,12,False,False,0.0,0.0,0.0,0.0,0.0,0.0,
199,38.38471893817854,24.174770871221476,90.7,31.87602389072807,0.0,39.7,0.0,0.0,0.0,1.3,-0.4,-116.7,208,12,False,False,0.0,0.0,0.0,0.0,0.0,0.0,
200,38.38471876273064,24.17477083555014,90.7,31.869505839884496,0.0,39.9,0.0,0.0,0.0,1.6,0.2,-116.80000000000001,208,12,False,False,0.0,0.0,0.0,0.0,0.0,0.0,
201,38.38471862652626,24.174770931788434,90.7,31.875085625659192,0.0,40.1,0.0,0.0,0.0,2.0,0.5,-116.80000000000001,208,12,False,False,0.0,0.0,0.0,0.0,0.0,0.0,
202,38.38471856794797,24.174771035021113,90.7,31.882793880341193,0.0,40.3,0.0,0.0,0.0,1.9000000000000001,0.2,-116.80000000000001,208,12,False,False,0.0,0.0,0.0,0.0,0.0,0.0,
204,38.38471842847543,24.17477096542703,90.7,31.874093163917653,0.0,40.7,0.0,0.0,0.0,2.3000000000000003,0.0,-116.80000000000001,208,12,False,False,0.0,0.0,0.0,0.0,0.0,0.0,
205,38.384718468751224,24.174770973864003,90.7,31.875604599902623,0.0,40.9,0.0,0.0,0.0,2.3000000000000003,0.0,-116.80000000000001,208,12,False,False,0.0,0.0,0.0,0.0,0.0,0.0,
206,38.384718525303526,24.17477100756817,90.7,31.879603179311683,0.0,41.1,0.01,0.0,0.0,1.9000000000000001,-0.1,-116.80000000000001,208,12,False,False,0.0,0.0,0.0,0.0,0.0,0.0,
207,38.38471855911154,24.174770919220396,90.7,31.872685369427938,0.0,41.3,0.01,0.0,0.0,-1.3,8.0,-116.9,208,12,False,False,0.0,0.0,0.0,0.0,0.0,0.0,
209,38.38472019493481,24.174769287956085,90.7,31.76544165170576,0.0,41.7,0.07,-0.05,0.0,1.2000000000000002,2.4000000000000004,-116.2,208,12,False,False,0.0,0.0,0.0,0.0,0.0,0.0,
210,38.38472156512972,24.174768046125795,90.7,31.68729030013957,0.0,41.9,0.07,-0.05,0.0,3.7,-1.2000000000000002,-116.60000000000001,208,12,False,False,0.0,0.0,0.0,0.0,0.0,0.0,
211,38.38472267646387,24.17476716415641,90.7,31.635286640912167,0.0,42.1,0.07,-0.04,0.0,2.4000000000000004,-6.9,-110.4,208,12,False,False,0.0,0.0,0.0,0.0,0.0,0.0,
212,38.384723581540484,24.174766494291504,90.7,31.597505225539525,0.0,42.3,0.04,-0.02,0.0,3.3000000000000003,-9.600000000000001,-110.4,208,12,False,False,0.0,0.0,0.0,0.0,0.0,0.0,
213,1.7404159410515873e-227,-5.548977397526304e-36,90.80000000000001,4931179.591625531,0.0,42.5,0.01,-0.01,0.0,3.0,-5.5,-110.30000000000001,208,12,False,False,0.0,0.0,0.0,0.0,0.0,0.0,
214,38.38472370822309,24.174765869146974,90.80000000000001,31.546830537397486,0.0,42.7,0.0,0.0,-0.01,2.5,-2.2,-110.2,208,12,False,False,0.0,0.0,0.0,0.0,0.0,0.0,
215,38.38472365844696,24.174765614201824,90.9,31.523955186696302,0.0,42.9,0.0,0.0,-0.1,1.8,-0.6000000000000001,-109.80000000000001,208,12,False,False,0.0,0.0,0.0,0.0,0.0,0.0,
216,38.3847236339808,24.1747654919969,91.2,31.512976941821808,0.0,43.1,0.0,0.0,-0.17,2.8000000000000003,-0.2,-109.80000000000001,208,12,False,False,0.0,0.0,0.0,0.0,0.0,0.0,
217,38.38472351693986,24.174765523187467,91.60000000000001,31.513092613539595,0.0,43.3,0.0,0.0,-0.17,2.2,0.4,-109.7,208,12,False,False,0.0,0.0,0.0,0.0,0.0,0.0,
219,38.384723421499565,24.174765471822482,92.9,31.506626263657942,0.0,43.7,0.0,0.0,-0.31,2.4000000000000004,-0.2,-109.7,208,12,False,False,0.0,0.0,0.0,0.0,0.0,0.0,
220,38.384723415160295,24.17476524686574,93.30000000000001,31.487259321618144,0.0,43.9,0.0,0.0,-0.24,2.7,0.5,-109.80000000000001,208,12,False,False,0.0,0.0,0.0,0.0,0.0,0.0,
221,38.384723575522436,24.174765079874916,93.7,31.476478708285935,0.0,44.1,0.0,0.0,-0.14,2.9000000000000004,0.0,-109.7,208,12,False,False,0.0,0.0,0.0,0.0,0.0,0.0,
222,38.38472343912531,24.174765088967614,93.9,31.474283986104055,0.0,44.3,0.0,0.0,-0.04,2.9000000000000004,0.0,-109.7,208,12,False,False,0.0,0.0,0.0,0.0,0.0,0.0,
224,38.38472377114892,24.174764999745555,93.9,31.47390594714234,0.0,44.7,0.0,0.0,0.0,0.5,-9.700000000000001,-109.4,208,12,False,False,0.0,0.0,0.0,0.0,0.0,0.0,
225,38.38472341666371,24.1747650771646,93.9,31.47278637775945,0.0,44.9,-0.03,0.0,0.01,1.7000000000000002,-9.8,-102.10000000000001,208,12,False,False,0.0,0.0,0.0,0.0,0.0,0.0,
226,38.38472257968716,24.174765243565272,93.9,31.468942323463224,0.0,45.1,-0.06,0.0,0.0,1.7000000000000002,-6.2,-99.0,208,12,False,False,0.0,0.0,0.0,0.0,0.0,0.0,
227,38.38472143217628,24.174765403758435,93.9,31.45831379505186,0.0,45.3,-0.06,0.0,0.0,2.7,5.6000000000000005,-98.80000000000001,208,12,False,False,0.0,0.0,0.0,0.0,0.0,0.0,
228,-4.601614833534836e-231,8.473750225626621e-154,93.9,4931179.591625531,0.0,45.5,-0.03,0.0,0.0,2.5,6.9,-98.4,208,12,False,False,0.0,0.0,0.0,0.0,0.0,0.0,
229,38.38472024415405,24.174765188353383,93.9,31.415199338246147,0.0,45.7,-0.01,0.0,0.0,3.4000000000000004,3.5,-104.10000000000001,208,12,False,False,0.0,0.0,0.0,0.0,0.0,0.0,
230,38.384720132741364,24.17476524321555,93.9,31.41761248647188,0.0,45.9,0.0,0.0,0.0,2.9000000000000004,1.3,-105.2,208,12,False,False,0.0,0.0,0.0,0.0,0.0,0.0,
231,38.38472003183131,24.174765089710768,93.9,31.402394650120016,0.0,46.1,0.0,0.0,0.0,2.4000000000000004,-0.2,-105.4,208,12,False,False,0.0,0.0,0.0,0.0,0.0,0.0,
232,38.384719980586006,24.174765372655305,93.9,31.42558751180094,0.0,46.3,-0.01,0.0,0.0,6.2,-15.100000000000001,-106.30000000000001,208,12,False,False,0.0,0.0,0.0,0.0,0.0,0.0,
233,-5.155708221403409e-113,2.3783918292036228e-59,93.9,4931179.591625531,0.0,46.5,-0.07,0.04,0.0,5.0,-22.8,-104.4,208,12,False,False,0.0,0.0,0.0,0.0,0.0,0.0,
234,38.38471724379836,24.17476744334153,93.9,31.54881947926359,0.0,46.7,-0.14,0.06,0.0,2.6,-26.5,-103.9,208,12,False,False,0.0,0.0,0.0,0.0,0.0,0.0,
235,38.38471341687883,24.174769455056357,93.9,31.650903489100678,0.0,46.9,-0.23,0.09,0.0,2.4000000000000004,-27.900000000000002,-103.9,208,12,False,False,0.0,0.0,0.0,0.0,0.0,0.0,
236,38.384708352054005,24.17477153026692,93.9,31.745077059696705,0.0,47.1,-0.31,0.11,0.0,2.7,-22.200000000000003,-104.0,208,12,False,False,0.0,0.0,0.0,0.0,0.0,0.0,
237,38.38470225974441,24.174774081401523,93.9,31.877287919704877,0.0,47.3,-0.35000000000000003,0.12,0.0,0.9,-5.0,-104.9,208,12,False,False,0.0,0.0,0.0,0.0,0.0,0.0,
239,38.384690692555594,24.174776772117507,94.0,31.98324773749487,0.0,47.7,-0.27,0.01,0.0,-3.7,26.8,-97.10000000000001,208,12,False,False,0.0,0.0,0.0,0.0,0.0,0.0,
240,38.38468743352778,24.174776285396092,94.0,31.91442494431179,0.0,47.9,-0.16,0.0,0.0,7.4,27.900000000000002,-96.4,208,12,False,False,0.0,0.0,0.0,0.0,0.0,0.0,
241,38.38468637332328,24.174776229747057,94.0,31.901835895721614,0.0,48.1,-0.05,0.0,0.0,5.1000000000000005,13.8,-98.60000000000001,208,12,False,False,0.0,0.0,0.0,0.0,0.0,0.0,
242,38.38468624064834,24.174776517565796,94.0,31.925932766291787,0.0,48.3,-0.01,0.0,0.0,3.3000000000000003,2.2,-96.9,208,12,False,False,0.0,0.0,0.0,0.0,0.0,0.0,
244,38.384686461441326,24.174776936004562,94.0,31.96389496553787,0.0,48.7,0.04,0.0,0.0,-1.1,5.2,-98.80000000000001,208,12,False,False,0.0,0.0,0.0,0.0,0.0,0.0,
245,38.38468740924161,24.17477673308011,94.0,31.953174429913002,0.0,48.9,0.05,0.0,0.0,-0.1,1.2000000000000002,-102.4,208,12,False,False,0.0,0.0,0.0,0.0,0.0,0.0,
246,38.38468839374113,24.174776594875535,93.9,31.948723556272505,0.0,49.1,0.05,-0.01,0.0,0.9,-5.4,-102.60000000000001,208,12,False,False,0.0,0.0,0.0,0.0,0.0,0.0,
247,38.38468898469183,24.174776396431866,93.9,31.936194868655154,0.0,49.3,0.02,0.0,0.0,1.4000000000000001,-7.300000000000001,-102.9,208,12,False,False,0.0,0.0,0.0,0.0,0.0,0.0,
248,1.142976966223502e-253,-7.145687136372525e-116,93.9,4931179.591625531,0.0,49.5,0.0,0.0,0.0,1.3,-4.2,-102.0,208,12,False,False,0.0,0.0,0.0,0.0,0.0,0.0,
249,38.38468947190335,24.174776753626116,93.9,31.971237876774897,0.0,49.7,0.0,0.0,0.0,0.9,-1.6,-101.7,208,12,False,False,0.0,0.0,0.0,0.0,0.0,0.0,
250,38.38468966924315,24.174776744904996,93.9,31.972122918877442,0.0,49.9,0.0,0.0,0.0,0.8,-0.5,-101.4,208,12,False,False,0.0,0.0,0.0,0.0,0.0,0.0,
251,38.38468994909628,24.174776581761083,93.9,31.96030020982614,0.0,50.1,0.0,0.0,0.0,1.2000000000000002,-1.1,-101.4,208,12,False,False,0.0,0.0,0.0,0.0,0.0,0.0,
252,38.38469001583209,24.1747764154697,93.9,31.94641496430964,0.0,50.3,0.0,0.0,0.0,1.4000000000000001,-1.4000000000000001,-101.4,208,12,False,False,0.0,0.0,0.0,0.0,0.0,0.0,
254,38.384690121252454,24.174776524603885,93.9,31.95679783531187,0.0,50.7,0.0,0.0,0.0,1.6,-0.5,-101.30000000000001,208,12,False,False,0.0,0.0,0.0,0.0,0.0,0.0,
255,38.38469007643425,24.174776398093037,93.9,31.94542097776696,0.0,50.9,0.0,0.0,0.0,1.5,-0.5,-101.30000000000001,208,12,False,False,0.0,0.0,0.0,0.0,0.0,0.0,
256,38.38469022185198,24.174776421567927,93.9,31.94870525364229,0.0,51.1,0.0,0.0,0.0,1.5,-0.6000000000000001,-101.30000000000001,208,12,False,False,0.0,0.0,0.0,0.0,0.0,0.0,
257,38.38469035101035,24.17477642145864,93.9,31.949807665465094,0.0,51.3,0.0,0.0,0.0,1.6,-0.7000000000000001,-101.30000000000001,208,12,False,False,0.0,0.0,0.0,0.0,0.0,0.0,
259,38.38469038132748,24.17477658128022,93.9,31.963957681167543,0.0,51.7,0.0,0.0,0.0,1.5,-0.4,-101.30000000000001,208,12,False,False,0.0,0.0,0.0,0.0,0.0,0.0,
260,38.3846905027181,24.174776556275315,93.9,31.962836732991494,0.0,51.9,0.0,0.0,0.0,1.8,-0.4,-101.30000000000001,208,12,False,False,0.0,0.0,0.0,0.0,0.0,0.0,
261,38.3846906517745,24.17477653043982,93.9,31.961891263382338,0.0,52.1,0.0,0.0,0.0,1.7000000000000002,-0.4,-101.30000000000001,208,12,False,False,0.0,0.0,0.0,0.0,0.0,0.0,
262,38.38469080844873,24.174776684141317,93.9,31.976621117286,0.0,52.3,0.0,0.0,0.0,1.5,-0.9,-101.30000000000001,208,12,False,False,0.0,0.0,0.0,0.0,0.0,0.0,
263,38.38469076802303,24.174776675070486,93.9,31.975477397804568,0.0,52.5,0.0,0.0,0.0,1.2000000000000002,-1.2000000000000002,-101.2,208,12,False,False,0.0,0.0,0.0,0.0,0.0,0.0,
264,38.384691001419576,24.174776647967256,93.9,31.975184154372204,0.0,52.7,0.0,0.0,0.0,1.3,-1.0,-101.2,208,12,False,False,0.0,0.0,0.0,0.0,0.0,0.0,
265,38.38469087897098,24.174776765538418,93.9,31.984315171411204,0.0,52.9,0.0,0.0,0.0,1.5,-0.7000000000000001,-101.2,208,12,False,False,0.0,0.0,0.0,0.0,0.0,0.0,
266,38.384690960505566,24.174776720665093,93.9,31.981137501127385,0.0,53.1,0.0,0.0,0.0,1.6,-0.5,-101.2,208,12,False,False,0.0,0.0,0.0,0.0,0.0,0.0,
267,38.384690916923084,24.174776688862526,93.9,31.977988518836497,0.0,53.3,0.0,0.0,0.0,1.9000000000000001,-0.1,-101.30000000000001,208,12,False,False,0.0,0.0,0.0,0.0,0.0,0.0,
269,38.38469095735307,24.174776538505213,93.9,31.965282800812236,0.0,53.7,0.0,0.0,0.0,1.9000000000000001,0.1,-101.2,208,12,False,False,0.0,0.0,0.0,0.0,0.0,0.0,
270,38.384691019225215,24.174776575291283,93.9,31.96902803581736,0.0,53.9,0.0,0.0,0.0,1.9000000000000001,0.0,-101.2,208,12,False,False,0.0,0.0,0.0,0.0,0.0,0.0,
271,38.384690904529386,24.174776753844686,93.9,31.983524924701687,0.0,54.1,0.0,0.0,0.0,1.7000000000000002,-0.30000000000000004,-101.2,208,12,False,False,0.0,0.0,0.0,0.0,0.0,0.0,
272,38.38469106409697,24.17477673458829,93.9,31.983267144048554,0.0,54.3,0.0,0.0,0.0,1.7000000000000002,-0.4,-101.2,208,12,False,False,0.0,0.0,0.0,0.0,0.0,0.0,
274,38.384690961452186,24.17477649127129,93.9,31.96121528249444,0.0,54.7,0.0,0.0,0.0,2.6,-0.30000000000000004,-101.2,208,12,False,False,0.0,0.0,0.0,0.0,0.0,0.0,
275,38.3846910756126,24.174776522833437,93.9,31.964972171606735,0.0,54.9,0.0,0.0,0.0,2.6,-0.4,-101.30000000000001,208,12,False,False,0.0,0.0,0.0,0.0,0.0,0.0,
276,38.38469103528756,24.174776432190644,93.9,31.956737979905757,0.0,55.1,0.0,0.0,0.0,3.1,4.4,-101.2,208,12,False,False,0.0,0.0,0.0,0.0,0.0,0.0,
277,38.384691361006176,24.174776424474956,93.9,31.95898586882623,0.0,55.3,0.03,0.0,0.0,2.1,21.3,-100.80000000000001,208,12,False,False,0.0,0.0,0.0,0.0,0.0,0.0,
278,4.794803465095114e-48,4.0112033556545937e-13,93.9,4931179.591625511,0.0,55.5,0.11,-0.02,0.0,-1.4000000000000001,28.200000000000003,-102.9,208,12,False,False,0.0,0.0,0.0,0.0,0.0,0.0,
279,38.384696526462854,24.174774644208494,93.9,31.85630315246506,0.0,55.7,0.2,-0.07,0.0,-11.3,24.5,-104.0,208,12,False,False,0.0,0.0,0.0,0.0,0.0,0.0,
280,38.384701088166,24.1747719084223,94.0,31.67387268937995,0.0,55.9,0.26,-0.14,0.0,-17.0,21.5,-103.80000000000001,208,12,False,False,0.0,0.0,0.0,0.0,0.0,0.0,
281,38.38470636648733,24.174767372064146,94.0,31.355546647716025,0.0,56.1,0.3,-0.21,0.0,-12.700000000000001,12.9,-101.7,208,12,False,False,0.0,0.0,0.0,0.0,0.0,0.0,
282,38.384712188084194,24.17476194726677,94.0,30.98311773229603,0.0,56.3,0.32,-0.25,0.0,-8.8,7.5,-101.30000000000001,208,12,False,False,0.0,0.0,0.0,0.0,0.0,0.0,
283,3.974609754101222e-253,-3.8437717929457426e-169,94.0,4931179.591625531,0.0,56.5,0.32,-0.27,0.0,-11.5,5.6000000000000005,-101.4,208,12,False,False,0.0,0.0,0.0,0.0,0.0,0.0,
284,38.384723921869515,24.174749388682702,94.0,30.144503024499528,0.0,56.7,0.31,-0.32,0.0,-18.8,2.5,-101.7,208,12,False,False,0.0,0.0,0.0,0.0,0.0,0.0,
285,38.384729560604086,24.174741249016726,94.0,29.589275085948284,0.0,56.9,0.29,-0.38,0.0,-24.400000000000002,1.8,-101.7,208,12,False,False,0.0,0.0,0.0,0.0,0.0,0.0,
286,38.38473450305111,24.174731206114387,94.0,28.87410167790376,0.0,57.1,0.26,-0.46,0.0,-26.0,1.4000000000000001,-101.60000000000001,208,12,False,False,0.0,0.0,0.0,0.0,0.0,0.0,
287,38.38473896106205,24.174719382990027,94.0,28.01463887374057,0.0,57.3,0.23,-0.54,0.0,-25.200000000000003,-0.6000000000000001,-101.10000000000001,208,12,False,False,0.0,0.0,0.0,0.0,0.0,0.0,
289,38.384746426059344,24.17469085634517,94.0,25.905682892990765,0.0,57.7,0.16,-0.67,0.0,-23.3,-2.8000000000000003,-100.7,208,12,False,False,0.0,0.0,0.0,0.0,0.0,0.0,
290,38.38474906962106,24.174674421235352,94.0,24.667268077435335,0.0,57.9,0.12,-0.73,0.0,-22.400000000000002,-2.8000000000000003,-100.7,208,12,False,False,0.0,0.0,0.0,0.0,0.0,0.0,
291,38.38475134131601,24.174656977011377,94.0,23.35751178342798,0.0,58.1,0.09,-0.78,0.0,-21.900000000000002,-2.6,-100.80000000000001,208,12,False,False,0.0,0.0,0.0,0.0,0.0,0.0,
292,38.38475298588567,24.174638192949487,94.0,21.942247247601852,0.0,58.3,0.06,-0.8300000000000001,0.0,-15.4,-2.4000000000000004,-100.9,208,12,False,False,0.0,0.0,0.0,0.0,0.0,0.0,
294,38.38475520576138,24.174599608757692,94.0,19.086248793305543,0.0,58.7,0.04,-0.8200000000000001,0.0,3.7,-2.8000000000000003,-101.30000000000001,208,12,False,False,0.0,0.0,0.0,0.0,0.0,0.0,
295,38.38475613521847,24.174581494887565,93.9,17.800931098290746,0.0,58.9,0.03,-0.77,0.0,21.3,-8.200000000000001,-102.10000000000001,208,12,False,False,0.0,0.0,0.0,0.0,0.0,0.0,
296,38.38475678109595,24.174565282811272,93.9,16.68162094155395,0.0,59.1,0.01,-0.66,0.0,27.700000000000003,-14.8,-104.10000000000001,208,12,False,False,0.0,0.0,0.0,0.0,0.0,0.0,
297,38.384756882447185,24.174552221572714,93.9,15.785140003542303,0.0,59.3,0.0,-0.53,0.0,28.5,-13.600000000000001,-104.7,208,12,False,False,0.0,0.0,0.0,0.0,0.0,0.0,
299,38.3847557441368,24.174534050238936,93.9,14.498091566243948,0.0,59.7,-0.03,-0.29,0.0,27.0,-6.7,-102.60000000000001,208,12,False,False,0.0,0.0,0.0,0.0,0.0,0.0,
300,38.384755156829044,24.174528598502693,93.9,14.105160104929459,0.0,59.9,-0.03,-0.18,0.0,26.8,-3.2,-101.9,208,12,False,False,0.0,0.0,0.0,0.0,0.0,0.0,
301,38.38475464882212,24.17452561209907,93.9,13.877843257385567,0.0,60.1,-0.02,-0.09,0.0,15.700000000000001,-1.3,-100.9,208,12,False,False,0.0,0.0,0.0,0.0,0.0,0.0,
302,38.3847543555623,24.17452385422567,93.9,13.745142076522498,0.0,60.3,-0.01,-0.05,0.0,8.4,-0.8,-100.4,208,12,False,False,0.0,0.0,0.0,0.0,0.0,0.0,
304,38.384753548290384,24.174521993228893,93.9,13.566437461092479,0.0,60.7,-0.01,-0.02,0.0,3.5,-0.2,-101.30000000000001,208,12,False,False,0.0,0.0,0.0,0.0,0.0,0.0,
305,38.384753315664824,24.174521446268365,93.9,13.514310917557083,0.0,60.9,-0.01,-0.01,0.0,5.800000000000001,0.0,-101.30000000000001,208,12,False,False,0.0,0.0,0.0,0.0,0.0,0.0,
306,38.38475324776609,24.17452138080538,93.9,13.504948032336793,0.0,61.1,0.0,0.01,0.0,14.9,-1.2000000000000002,-101.10000000000001,208,12,False,False,0.0,0.0,0.0,0.0,0.0,0.0,
307,38.38475320733183,24.174522327079483,93.9,13.56070573392478,0.0,61.3,0.0,0.06,0.0,19.1,-1.1,-100.10000000000001,208,12,False,False,0.0,0.0,0.0,0.0,0.0,0.0,
309,38.38475370351687,24.174528928375416,93.9,14.015749904149091,0.0,61.7,0.02,0.2,0.0,25.0,-0.1,-101.10000000000001,208,12,False,False,0.0,0.0,0.0,0.0,0.0,0.0,
310,38.38475444540864,24.174534873292423,93.9,14.454868052070614,0.0,61.9,0.04,0.28,0.0,24.400000000000002,-0.5,-101.30000000000001,208,12,False,False,0.0,0.0,0.0,0.0,0.0,0.0,
311,38.38475540969746,24.174542045428016,93.9,14.996944773649366,0.0,62.1,0.05,0.34,0.0,24.1,-0.30000000000000004,-101.4,208,12,False,False,0.0,0.0,0.0,0.0,0.0,0.0,
312,38.38475668116679,24.17455067129082,93.9,15.66588500739856,0.0,62.3,0.07,0.4,0.0,24.0,-0.7000000000000001,-101.4,208,12,False,False,0.0,0.0,0.0,0.0,0.0,0.0,
314,38.38475974991374,24.17457202900157,94.0,17.35118738789836,0.0,62.7,0.09,0.51,0.0,23.6,-0.8,-101.4,208,12,False,False,0.0,0.0,0.0,0.0,0.0,0.0,
315,38.384761686081355,24.17458430366843,94.0,18.348949004981964,0.0,62.9,0.1,0.56,0.0,23.0,-5.5,-102.10000000000001,208,12,False,False,0.0,0.0,0.0,0.0,0.0,0.0,
316,38.384763245002354,24.17459781019858,94.0,19.423743938890002,0.0,63.1,0.07,0.6,0.0,13.100000000000001,-21.6,-101.4,208,12,False,False,0.0,0.0,0.0,0.0,0.0,0.0,
317,38.38476344984643,24.174611788510532,94.0,20.46783072260225,0.0,63.3,-0.01,0.62,0.0,4.9,-27.6,-98.9,208,12,False,False,0.0,0.0,0.0,0.0,0.0,0.0,
319,38.384758617317146,24.174639814815887,94.0,22.345089330428685,0.0,63.7,-0.2,0.61,0.0,6.7,-28.0,-99.80000000000001,208,12,False,False,0.0,0.0,0.0,0.0,0.0,0.0,
320,38.38475383800364,24.174653889343418,94.0,23.223359535421736,0.0,63.9,-0.29,0.61,0.0,6.7,-26.5,-99.80000000000001,208,12,False,False,0.0,0.0,0.0,0.0,0.0,0.0,
321,38.38474772209739,24.174668044941814,94.0,24.09525747626706,0.0,64.1,-0.37,0.61,0.0,6.2,-25.900000000000002,-99.5,208,12,False,False,0.0,0.0,0.0,0.0,0.0,0.0,
322,38.384740279356116,24.174682103645363,94.10000000000001,24.960304593915286,0.0,64.3,-0.44,0.61,0.0,5.0,-25.6,-99.4,208,12,False,False,0.0,0.0,0.0,0.0,0.0,0.0,
323,3.9744670902416666e-85,-7.032799019225864e-05,94.10000000000001,4931183.182850925,0.0,64.5,-0.51,0.6,0.0,4.4,-25.900000000000002,-99.60000000000001,208,12,False,False,0.0,0.0,0.0,0.0,0.0,0.0,
324,38.384721622075766,24.17470967833227,94.10000000000001,26.70893801238644,0.0,64.7,-0.5700000000000001,0.59,0.0,3.6,-22.6,-99.4,208,12,False,False,0.0,0.0,0.0,0.0,0.0,0.0,
325,38.38471057427266,24.174723209374832,94.10000000000001,27.623212049828965,0.0,64.9,-0.61,0.5700000000000001,0.0,0.8,-2.7,-100.4,208,12,False,False,0.0,0.0,0.0,0.0,0.0,0.0,
326,38.38469989276326,24.174735911977933,94.10000000000001,28.5430880684539,0.0,65.1,-0.58,0.54,0.0,-6.4,13.0,-102.10000000000001,208,12,False,False,0.0,0.0,0.0,0.0,0.0,0.0,
327,38.384690376752715,24.174747224054006,94.10000000000001,29.413515298114046,0.0,65.3,-0.5,0.46,0.0,-17.400000000000002,23.400000000000002,-104.10000000000001,208,12,False,False,0.0,0.0,0.0,0.0,0.0,0.0,
329,38.384676035860814,24.17476411298953,94.10000000000001,30.793366995310553,0.0,65.7,-0.33,0.29,0.01,-29.200000000000003,16.1,-102.7,208,12,False,False,0.0,0.0,0.0,0.0,0.0,0.0,
330,38.384670615895025,24.17476927453579,94.0,31.231731358305954,0.0,65.9,-0.28,0.16,0.01,-20.0,18.7,-95.80000000000001,208,12,False,False,0.0,0.0,0.0,0.0,0.0,0.0,
331,38.38466630450381,24.17477215278864,94.0,31.481883365939034,0.0,66.1,-0.19,0.09,0.01,-13.8,25.1,-95.10000000000001,208,12,False,False,0.0,0.0,0.0,0.0,0.0,0.0,
332,38.38466382796825,24.174773495578403,94.0,31.601803057238055,0.0,66.3,-0.09,0.03,0.0,-3.8000000000000003,17.1,-92.2,208,12,False,False,0.0,0.0,0.0,0.0,0.0,0.0,
334,38.38466176279356,24.17477454418894,94.0,31.69741734041283,0.0,66.7,-0.03,0.01,0.0,1.8,2.6,-92.30000000000001,208,12,False,False,0.0,0.0,0.0,0.0,0.0,0.0,
335,38.38466127106127,24.174775208961034,94.0,31.75659477706844,0.0,66.9,-0.02,0.01,0.0,1.4000000000000001,1.1,-92.60000000000001,208,12,False,False,0.0,0.0,0.0,0.0,0.0,0.0,
336,38.38466073151675,24.174775458944538,94.0,31.77985534323677,0.0,67.1,-0.01,0.01,0.0,1.1,1.2000000000000002,-92.60000000000001,208,12,False,False,0.0,0.0,0.0,0.0,0.0,0.0,
337,38.3846604070411,24.174775710239494,94.0,31.802693954175968,0.0,67.3,-0.01,0.0,0.0,1.1,1.6,-92.60000000000001,208,12,False,False,0.0,0.0,0.0,0.0,0.0,0.0,
339,38.38465999205336,24.174775822608577,93.9,31.813749443069668,0.0,67.7,0.0,0.0,0.0,1.4000000000000001,2.1,-92.5,208,12,False,False,0.0,0.0,0.0,0.0,0.0,0.0,
340,38.38466009584648,24.17477577034744,93.9,31.808873455157173,0.0,67.9,0.0,0.0,0.0,1.4000000000000001,1.5,-92.5,208,12,False,False,0.0,0.0,0.0,0.0,0.0,0.0,
341,38.38466026149193,24.174775800619994,93.9,31.811004821773224,0.0,68.1,0.0,0.0,0.0,0.9,0.4,-92.5,208,12,False,False,0.0,0.0,0.0,0.0,0.0,0.0,
342,38.384660252364235,24.174775690152504,93.9,31.80140752687392,0.0,68.3,0.0,0.0,0.0,1.0,0.0,-92.4,208,12,False,False,0.0,0.0,0.0,0.0,0.0,0.0,
344,38.384660432210275,24.1747755531938,93.9,31.788935926898688,0.0,68.7,0.0,0.0,0.0,1.7000000000000002,0.2,-92.4,208,12,False,False,0.0,0.0,0.0,0.0,0.0,0.0,
345,38.38466064170846,24.17477541188547,93.9,31.776011966304072,0.0,68.9,0.0,0.0,0.0,2.0,0.6000000000000001,-92.4,208,12,False,False,0.0,0.0,0.0,0.0,0.0,0.0,
346,38.384660739457445,24.174775314772877,93.9,31.767270697704188,0.0,69.1,0.0,0.0,0.0,2.2,0.5,-92.4,208,12,False,False,0.0,0.0,0.0,0.0,0.0,0.0,
347,38.38466102286677,24.174775085859938,93.9,31.746534580828595,0.0,69.3,0.0,0.0,0.0,1.9000000000000001,0.0,-92.5,208,12,False,False,0.0,0.0,0.0,0.0,0.0,0.0,
349,38.38466111816385,24.174775119760824,93.9,31.749229835759312,0.0,69.7,0.0,0.0,0.0,1.8,0.30000000000000004,-92.4,208,12,False,False,0.0,0.0,0.0,0.0,0.0,0.0,
350,38.38466132550379,24.174775182600953,93.9,31.75415490636473,0.0,69.9,0.0,0.0,0.0,1.2000000000000002,0.6000000000000001,-92.4,208,12,False,False,0.0,0.0,0.0,0.0,0.0,0.0,
351,38.384661420149,24.174775189682766,93.9,31.754526253310033,0.0,70.1,0.0,0.0,0.0,1.0,0.5,-92.60000000000001,208,12,False,False,0.0,0.0,0.0,0.0,0.0,0.0,
352,38.38466137524673,24.17477514988037,93.9,31.751174125267042,0.0,70.3,0.0,0.0,0.0,1.5,0.4,-92.80000000000001,208,12,False,False,0.0,0.0,0.0,0.0,0.0,0.0,
354,38.38466159971635,24.174775023806674,93.9,31.739615313477135,0.0,70.7,0.0,0.0,0.0,1.7000000000000002,0.2,-92.9,208,12,False,False,0.0,0.0,0.0,0.0,0.0,0.0,
355,38.38466153900498,24.17477506085503,93.9,31.742996716014684,0.0,70.9,0.0,0.0,0.0,1.5,0.1,-92.9,208,12,False,False,0.0,0.0,0.0,0.0,0.0,0.0,
356,38.384661638007906,24.174775234818373,93.9,31.757906926360498,0.0,71.1,0.0,0.0,0.0,1.4000000000000001,0.2,-94.4,208,12,False,False,0.0,0.0,0.0,0.0,0.0,0.0,
357,38.38466173710828,24.174775056986263,93.9,31.742165499541738,0.0,71.3,0.0,0.0,0.0,1.6,-0.2,-94.5,208,12,False,False,0.0,0.0,0.0,0.0,0.0,0.0,
358,-1.185784112401891e-193,2.8183731800649944e-35,93.9,4931179.591625531,0.0,71.5,0.0,0.0,0.0,1.9000000000000001,-0.1,-94.60000000000001,208,12,False,False,0.0,0.0,0.0,0.0,0.0,0.0,
359,38.38466174803174,24.174775213988234,93.9,31.75581985890912,0.0,71.7,0.0,0.0,0.0,1.9000000000000001,0.7000000000000001,-94.60000000000001,208,12,False,False,0.0,0.0,0.0,0.0,0.0,0.0,
360,38.38466187906351,24.174775234774657,93.9,31.757313485083564,0.0,71.9,0.0,0.0,0.0,1.5,0.4,-94.5,208,12,False,False,0.0,0.0,0.0,0.0,0.0,0.0,
361,38.384661904482975,24.174775224916957,93.9,31.75639361515453,0.0,72.1,0.0,0.0,0.0,1.6,0.0,-94.5,208,12,False,False,0.0,0.0,0.0,0.0,0.0,0.0,
362,38.38466190652048,24.17477518867732,93.9,31.753230785529798,0.0,72.3,0.0,0.0,0.0,2.3000000000000003,-0.2,-94.5,208,12,False,False,0.0,0.0,0.0,0.0,0.0,0.0,
363,-2.0487056534967474e-77,-3.174141094163336e-07,93.9,4931179.607833935,0.0,72.5,0.0,0.0,0.0,2.1,-0.30000000000000004,-94.5,208,12,False,False,0.0,0.0,0.0,0.0,0.0,0.0,
364,38.384661963982445,24.174775282292728,93.9,31.761251951574327,0.0,72.7,0.0,0.0,0.0,1.6,-0.2,-94.5,208,12,False,False,0.0,0.0,0.0,0.0,0.0,0.0,
365,38.38466204442292,24.174775324543152,93.9,31.764744692857253,0.0,72.9,0.0,0.0,0.0,1.3,-0.1,-94.5,208,12,False,False,0.0,0.0,0.0,0.0,0.0,0.0,
366,38.38466197638899,24.174775446136074,93.9,31.775500198780403,0.0,73.1,0.0,0.0,0.0,1.7000000000000002,0.5,-94.5,208,12,False,False,0.0,0.0,0.0,0.0,0.0,0.0,
367,38.384661978217686,24.17477537975504,93.9,31.769711334422006,0.0,73.3,0.0,0.0,0.0,1.8,0.7000000000000001,-94.5,208,12,False,False,0.0,0.0,0.0,0.0,0.0,0.0,
368,1.9737074753433284e-114,6.904397539046846e-50,93.9,4931179.591625531,0.0,73.5,0.0,0.0,0.0,1.7000000000000002,0.4,-94.5,208,12,False,False,0.0,0.0,0.0,0.0,0.0,0.0,
369,38.38466199178635,24.174775490462956,93.80000000000001,31.77932662826819,0.0,73.7,0.0,0.0,0.0,1.8,-0.2,-94.5,208,12,False,False,0.0,0.0,0.0,0.0,0.0,0.0,
370,38.384662008594255,24.17477563067842,93.9,31.79150575315587,0.0,73.9,0.0,0.0,0.0,1.4000000000000001,-0.8,-94.4,208,12,False,False,0.0,0.0,0.0,0.0,0.0,0.0,
371,38.38466191935054,24.17477557719327,93.9,31.787055921049696,0.0,74.1,0.0,0.0,0.0,1.5,-0.4,-94.4,208,12,False,False,0.0,0.0,0.0,0.0,0.0,0.0,
372,38.38466180584868,24.17477566468859,93.9,31.79495308379588,0.0,74.3,0.0,0.0,0.0,1.5,0.30000000000000004,-94.4,208,12,False,False,0.0,0.0,0.0,0.0,0.0,0.0,
374,38.38466155704969,24.174775740380895,93.9,31.80216413186385,0.0,74.7,0.0,0.0,0.0,-0.30000000000000004,9.700000000000001,-94.60000000000001,208,12,False,False,0.0,0.0,0.0,0.0,0.0,0.0,
375,38.38466224946919,24.1747755996627,93.9,31.788249081569404,0.0,74.9,0.04,-0.02,0.0,-12.700000000000001,22.5,-96.80000000000001,208,12,False,False,0.0,0.0,0.0,0.0,0.0,0.0,
376,38.38466406810145,24.17477384796392,93.9,31.632129846737765,0.0,75.1,0.12,-0.09,0.0,-17.900000000000002,23.900000000000002,-97.5,208,12,False,False,0.0,0.0,0.0,0.0,0.0,0.0,
377,38.384667282594364,24.174770460367107,93.9,31.333891119468266,0.0,75.3,0.2,-0.17,0.0,-17.0,20.900000000000002,-96.7,208,12,False,False,0.0,0.0,0.0,0.0,0.0,0.0,
379,38.384676911205226,24.174758841215688,93.9,30.33707573683446,0.0,75.7,0.31,-0.3,0.0,-15.4,20.0,-96.30000000000001,208,12,False,False,0.0,0.0,0.0,0.0,0.0,0.0,
380,38.38468311866866,24.174751142742394,93.9,29.697392044763863,0.0,75.9,0.36,-0.35000000000000003,0.0,-14.9,19.700000000000003,-96.2,208,12,False,False,0.0,0.0,0.0,0.0,0.0,0.0,
381,38.38468999059727,24.174742365844438,93.9,28.987955428876273,0.0,76.1,0.4,-0.4,0.0,-15.0,20.200000000000003,-96.5,208,12,False,False,0.0,0.0,0.0,0.0,0.0,0.0,
382,38.3846978535037,24.174732538019345,94.0,28.223775380235995,0.0,76.3,0.43,-0.43,0.0,1.7000000000000002,0.5,-93.80000000000001,208,12,False,False,0.0,0.0,0.0,0.0,0.0,0.0,
383,-2.9293599579280297e-299,1.7112770195913133e-124,94.0,4931179.591625531,0.0,76.5,0.4,-0.4,0.0,5.7,-4.5,-94.5,208,12,False,False,0.0,0.0,0.0,0.0,0.0,0.0,
384,38.38471223688375,24.17471477393372,94.0,26.93224045811792,0.0,76.7,0.37,-0.38,0.0,0.1,1.0,-94.60000000000001,208,12,False,False,0.0,0.0,0.0,0.0,0.0,0.0,
385,38.384718899787394,24.174706047483458,94.0,26.333875926288822,0.0,76.9,0.37,-0.38,0.0,-9.4,9.3,-95.30000000000001,208,12,False,False,0.0,0.0,0.0,0.0,0.0,0.0,
386,38.384725925353365,24.174696651386036,94.0,25.718916555078458,0.0,77.1,0.39,-0.41000000000000003,0.0,-13.600000000000001,10.700000000000001,-95.5,208,12,False,False,0.0,0.0,0.0,0.0,0.0,0.0,
387,38.38473300022413,24.174686272622363,94.0,25.05944255377204,0.0,77.3,0.39,-0.45,0.0,-10.0,1.7000000000000002,-94.2,208,12,False,False,0.0,0.0,0.0,0.0,0.0,0.0,
389,38.38474613930163,24.174664227713798,94.0,23.72117267716003,0.0,77.7,0.34,-0.53,0.0,-24.1,-1.2000000000000002,-94.4,208,12,False,False,0.0,0.0,0.0,0.0,0.0,0.0,
390,38.38475207787959,24.17465105478193,94.0,22.91783390824429,0.0,77.9,0.31,-0.6,0.0,-25.3,-1.0,-94.30000000000001,208,12,False,False,0.0,0.0,0.0,0.0,0.0,0.0,
391,38.384757236923946,24.17463622796496,94.0,21.996830030978376,0.0,78.1,0.29,-0.67,0.0,-23.6,-1.7000000000000002,-94.10000000000001,208,12,False,False,0.0,0.0,0.0,0.0,0.0,0.0,
392,38.3847619502834,24.174619924043462,94.0,20.994014279639206,0.0,78.3,0.26,-0.73,0.0,-20.200000000000003,-2.0,-94.10000000000001,208,12,False,False,0.0,0.0,0.0,0.0,0.0,0.0,
394,38.384770367584665,24.1745848122137,94.0,18.94890648525084,0.0,78.7,0.21,-0.79,0.0,-6.2,-2.1,-94.30000000000001,208,12,False,False,0.0,0.0,0.0,0.0,0.0,0.0,
395,38.384773949307224,24.174566982062817,94.0,17.988923212616434,0.0,78.9,0.19,-0.77,0.0,5.0,-2.8000000000000003,-94.5,208,12,False,False,0.0,0.0,0.0,0.0,0.0,0.0,
396,38.38477729388954,24.174550255626315,94.0,17.17482324887901,0.0,79.1,0.17,-0.71,0.0,24.200000000000003,-13.5,-96.10000000000001,208,12,False,False,0.0,0.0,0.0,0.0,0.0,0.0,
397,38.38477972548831,24.174535719152093,93.9,16.506304755156194,0.0,79.3,0.11,-0.6,0.0,25.8,-16.7,-96.5,144,12,False,False,0.0,0.0,0.0,0.0,0.0,0.0,
398,1.9176642123844402e-72,2.6081591485415655e-235,93.9,4931179.591625531,0.0,79.5,0.06,-0.49,0.01,27.0,-15.0,-96.5,144,12,False,False,0.0,0.0,0.0,0.0,0.0,0.0,Switched to T (Tripod)-mode.
399,38.38478198108662,24.17451478432862,93.9,15.569151648282567,0.0,79.7,0.02,-0.37,0.02,29.0,-9.8,-96.80000000000001,144,12,False,False,0.0,0.0,0.0,0.0,0.0,0.0,
400,38.384782412217014,24.1745081788583,93.9,15.281608608600681,0.0,79.9,0.0,-0.24,0.0,28.200000000000003,-4.800000000000001,-95.60000000000001,144,12,False,False,0.0,0.0,0.0,0.0,0.0,0.0,
401,38.384782366942616,24.17450395498543,93.9,15.0763484979631,0.0,80.1,0.0,-0.13,0.0,18.900000000000002,-2.8000000000000003,-94.7,144,12,False,False,0.0,0.0,0.0,0.0,0.0,0.0,
402,38.38478208776625,24.174501643840006,94.0,14.942665329060402,0.0,80.3,-0.01,-0.08,0.0,10.4,-2.7,-94.0,144,12,False,False,0.0,0.0,0.0,0.0,0.0,0.0,
404,38.38478142968994,24.174498784685117,93.9,14.749766561279763,0.0,80.7,-0.01,-0.03,0.0,4.5,0.8,-103.80000000000001,144,12,False,False,0.0,0.0,0.0,0.0,0.0,0.0,
405,38.3847813077789,24.174498233134564,93.9,14.713271009761332,0.0,80.9,-0.01,-0.02,0.0,3.0,0.6000000000000001,-108.5,144,12,False,False,0.0,0.0,0.0,0.0,0.0,0.0,
406,38.384781274626235,24.174497897284127,93.9,14.695000727566732,0.0,81.1,0.0,-0.01,0.0,2.5,-0.1,-113.4,144,12,False,False,0.0,0.0,0.0,0.0,0.0,0.0,
407,38.38478143296238,24.174497650158486,93.9,14.699005884841894,0.0,81.3,0.0,0.0,0.0,1.8,-0.5,-118.2,144,12,False,False,0.0,0.0,0.0,0.0,0.0,0.0,
409,38.38478140308214,24.17449751805215,93.9,14.690239640451676,0.0,81.7,0.0,0.0,0.0,1.3,1.4000000000000001,-127.30000000000001,144,12,False,False,0.0,0.0,0.0,0.0,0.0,0.0,
410,38.38478158875425,24.174497615110095,93.9,14.712299912875112,0.0,81.9,0.0,0.0,0.0,1.1,2.0,-131.8,144,12,False,False,0.0,0.0,0.0,0.0,0.0,0.0,
411,38.384781665356634,24.17449763421349,93.9,14.72046484035369,0.0,82.1,0.0,0.0,0.0,0.9,2.1,-136.4,144,12,False,False,0.0,0.0,0.0,0.0,0.0,0.0,
412,38.38478187864741,24.174497367711215,93.9,14.728935931383209,0.0,82.3,0.01,0.0,0.0,0.6000000000000001,1.9000000000000001,-141.0,144,12,False,False,0.0,0.0,0.0,0.0,0.0,0.0,
