index,latitude,longitude,height,home_distance,vps_altitude,time_seconds,speed_x,speed_y,speed_z,pitch,roll,yaw,satellite_count,flight_mode,is_motor_on,is_flying,battery_percent,battery_voltage,cell_1,cell_2,cell_3,cell_4,message
2,39.35507386831427,22.666431776341046,0.0,0.0,0.0,0.3,0.0,0.0,0.0,4.800000000000001,0.7000000000000001,114.5,144,26,False,True,0.0,0.0,0.0,0.0,0.0,0.0,
3,-2.5575509642019384e-258,-1.200672811429891e-267,0.0,4945816.569248754,0.0,0.5,0.0,0.0,0.0,4.800000000000001,0.7000000000000001,114.7,144,26,False,True,0.0,0.0,0.0,0.0,0.0,0.0,
4,39.355073887044036,22.666431361769302,0.0,0.0357054077336306,0.0,0.7,0.0,0.0,0.0,4.6000000000000005,0.9,114.7,144,26,False,True,0.0,0.0,0.0,0.0,0.0,0.0,
5,39.35507389293966,22.66643126775177,0.0,0.04381383311760822,0.0,0.9,0.0,0.0,0.0,4.5,0.9,114.7,144,26,False,True,0.0,0.0,0.0,0.0,0.0,0.0,
6,39.35507390514473,22.666431347267782,0.0,0.03711806723645295,0.0,1.1,0.0,0.0,0.0,4.5,0.9,114.7,144,26,False,True,0.0,0.0,0.0,0.0,0.0,0.0,
7,39.3550739026006,22.666431237408613,0.0,0.04649364422749349,0.0,1.3,0.0,0.0,0.0,4.5,1.0,114.7,144,26,False,True,0.0,0.0,0.0,0.0,0.0,0.0,
8,39.35507372374425,22.666431298511068,0.0,0.04411661567620664,0.0,1.5,0.0,0.0,0.0,4.5,1.0,114.7,144,26,False,True,0.0,0.0,0.0,0.0,0.0,0.0,
9,39.35507355730874,22.666430999354603,0.0,0.07522508152012188,0.0,1.7,0.0,0.0,0.0,4.5,1.0,114.7,144,26,False,False,0.0,0.0,0.0,0.0,0.0,0.0,
10,39.355073580048526,22.666430889024603,0.0,0.08275108131477583,0.0,1.9,0.0,0.0,0.0,4.5,1.0,114.60000000000001,144,26,False,False,0.0,0.0,0.0,0.0,0.0,0.0,
11,39.355073601238374,22.666430966202032,0.0,0.07572181419599407,0.0,2.1,0.0,0.0,0.0,4.5,1.0,114.60000000000001,144,26,False,False,0.0,0.0,0.0,0.0,0.0,0.0,
12,39.35507362408843,22.66643086106536,0.0,0.08324878647044018,0.0,2.3,0.0,0.0,0.0,4.5,1.0,114.7,144,26,False,False,0.0,0.0,0.0,0.0,0.0,0.0,
13,39.35507364814739,22.666430930027875,0.0,0.07677339900171118,0.0,2.5,0.0,0.0,0.0,4.5,1.0,114.60000000000001,144,26,False,False,0.0,0.0,0.0,0.0,0.0,0.0,
14,39.35507348911513,22.666430984697996,0.0,0.08006702842479385,0.0,2.7,0.0,0.0,0.0,4.5,1.0,114.60000000000001,144,26,False,False,0.0,0.0,0.0,0.0,0.0,0.0,
15,39.35507351041258,22.66643084938466,0.0,0.08908276986173688,0.0,2.9,0.0,0.0,0.0,4.5,1.0,114.60000000000001,144,26,False,False,0.0,0.0,0.0,0.0,0.0,0.0,
16,39.355073530885015,22.666430721729903,0.0,0.0981310417509223,0.0,3.1,0.0,0.0,0.0,4.5,1.0,114.60000000000001,144,26,False,False,0.0,0.0,0.0,0.0,0.0,0.0,
17,39.35507354240481,22.66643078173008,0.0,0.09287782241563625,0.0,3.3,0.0,0.0,0.0,4.4,1.1,114.7,144,26,False,False,0.0,0.0,0.0,0.0,0.0,0.0,
18,39.35507355917615,22.666430660405542,0.0,0.10191919230302891,0.0,3.5,0.0,0.0,0.0,3.1,1.2000000000000002,115.0,144,26,False,False,0.0,0.0,0.0,0.0,0.0,0.0,
19,39.355073433962325,22.66643058694248,0.0,0.11309528286571519,0.0,3.7,0.0,0.0,-0.01,-3.1,0.30000000000000004,115.2,144,28,False,False,0.0,0.0,0.0,0.0,0.0,0.0,
20,39.35507343102901,22.666430876342094,0.1,0.09139013002630113,0.0,3.9,0.0,0.01,-0.05,-0.1,1.2000000000000002,114.80000000000001,144,28,False,False,0.0,0.0,0.0,0.0,0.0,0.0,
21,39.35507380450668,22.666430928639016,0.2,0.07322941078280543,0.0,4.1,0.02,0.0,-0.06,0.6000000000000001,4.1000000000000005,114.5,144,28,False,False,0.0,0.0,0.0,0.0,0.0,0.0,
22,39.355074316085656,22.666430780889847,0.30000000000000004,0.09901709865888153,0.0,4.3,0.02,0.0,-0.06,-1.7000000000000002,5.5,114.4,144,28,False,False,0.0,0.0,0.0,0.0,0.0,0.0,
24,39.355074991655066,22.66643025909419,0.5,0.1806105260218357,0.0,4.7,0.0,0.0,-0.05,-4.6000000000000005,7.2,114.7,144,28,False,False,0.0,0.0,0.0,0.0,0.0,0.0,
25,39.35507501017547,22.666430268338036,0.7000000000000001,0.18147216274969172,0.0,4.9,0.0,0.0,-0.08,-2.9000000000000004,5.2,114.7,144,28,False,False,0.0,0.0,0.0,0.0,0.0,0.0,
26,39.35507490507854,22.6664299277833,0.9,0.1963450675713389,0.0,5.1,0.0,0.0,-0.1,-3.0,6.1000000000000005,114.5,144,28,False,False,0.0,0.0,0.0,0.0,0.0,0.0,
27,39.35507502614103,22.666429936309477,1.1,0.20397029040265338,0.0,5.3,0.0,0.0,-0.09,-1.6,5.300000000000001,114.80000000000001,144,28,False,False,0.0,0.0,0.0,0.0,0.0,0.0,
29,39.35507505840096,22.666430475490824,1.5,0.1732663936242043,0.0,5.7,0.0,0.0,-0.1,0.6000000000000001,6.800000000000001,115.0,144,28,False,False,0.0,0.0,0.0,0.0,0.0,0.0,
30,39.35507481125731,22.666430939262032,1.7000000000000002,0.1271751700756029,0.0,5.9,0.0,0.0,-0.1,0.30000000000000004,6.7,115.0,144,28,False,False,0.0,0.0,0.0,0.0,0.0,0.0,
31,39.355074827117974,22.666431014863228,1.9000000000000001,0.12511222821743076,0.0,6.1,0.0,0.0,-0.09,-0.4,7.4,114.9,144,28,False,False,0.0,0.0,0.0,0.0,0.0,0.0,
32,39.35507532181482,22.66643063772649,2.1,0.18895906264846968,0.0,6.3,0.0,0.0,-0.09,0.0,7.9,114.9,144,28,False,False,0.0,0.0,0.0,0.0,0.0,0.0,
34,39.35507533801653,22.666430110623914,2.5,0.2172979880460031,0.0,6.7,-0.01,-0.01,-0.09,-0.2,5.9,115.10000000000001,144,28,False,False,0.0,0.0,0.0,0.0,0.0,0.0,
35,39.35507472112688,22.666430028265513,2.6,0.17771339265441857,0.0,6.9,-0.01,-0.01,-0.09,-1.6,4.3,114.80000000000001,144,28,False,False,0.0,0.0,0.0,0.0,0.0,0.0,
36,39.355074056103895,22.666429847684455,2.8000000000000003,0.16713422595247118,0.0,7.1,-0.01,-0.01,-0.09,-2.4000000000000004,3.4000000000000004,114.60000000000001,144,28,False,False,0.0,0.0,0.0,0.0,0.0,0.0,
37,39.355073707032304,22.666429663613815,3.0,0.18253407193329493,0.0,7.3,0.0,-0.01,-0.09,-3.1,3.1,114.9,144,28,False,False,0.0,0.0,0.0,0.0,0.0,0.0,
39,39.35507388942858,22.666429932053585,3.4000000000000004,0.1585880502781687,0.0,7.7,0.0,0.0,-0.09,-2.7,3.1,114.60000000000001,144,28,False,False,0.0,0.0,0.0,0.0,0.0,0.0,
40,39.35507419825405,22.666430041327377,3.6,0.15362055760677326,0.0,7.9,0.0,0.0,-0.1,-2.3000000000000003,2.6,114.30000000000001,144,28,False,False,0.0,0.0,0.0,0.0,0.0,0.0,
41,39.3550739101666,22.666429886517637,3.8000000000000003,0.1625524531819478,0.0,8.1,0.0,0.0,-0.1,-1.4000000000000001,2.6,113.9,144,28,False,False,0.0,0.0,0.0,0.0,0.0,0.0,
42,39.35507351631624,22.666429611869514,4.0,0.19017134765489022,0.0,8.3,0.0,0.0,-0.1,-0.8,3.9000000000000004,113.5,144,28,False,False,0.0,0.0,0.0,0.0,0.0,0.0,
44,39.35507379082485,22.666429020878645,4.3,0.23706955243003072,0.0,8.7,0.0,0.0,-0.03,-1.6,4.2,112.60000000000001,144,28,False,False,0.0,0.0,0.0,0.0,0.0,0.0,
45,39.355073750462985,22.66642879242262,4.4,0.25688988091247017,0.0,8.9,0.0,0.0,0.0,-1.5,4.2,112.60000000000001,144,28,False,False,0.0,0.0,0.0,0.0,0.0,0.0,
46,39.35507403053901,22.666428431266013,4.4,0.2881725660811391,0.0,9.1,0.0,0.0,0.0,-2.5,3.5,112.60000000000001,144,28,False,False,0.0,0.0,0.0,0.0,0.0,0.0,
47,39.35507392618414,22.666428035837605,4.4,0.32167049109556806,0.0,9.3,0.0,0.0,0.0,-2.9000000000000004,2.9000000000000004,112.60000000000001,144,28,False,False,0.0,0.0,0.0,0.0,0.0,0.0,
48,39.355073872723125,22.666428020649928,4.4,0.3229123211591173,0.0,9.5,0.0,0.0,0.0,-3.1,2.9000000000000004,112.60000000000001,208,28,False,False,0.0,0.0,0.0,0.0,0.0,0.0,
49,39.35507386379137,22.66642797965638,4.4,0.3264369358153657,0.0,9.7,0.0,0.0,0.0,-2.4000000000000004,3.2,112.60000000000001,208,28,False,False,0.0,0.0,0.0,0.0,0.0,0.0,Switched to Normal (N) mode
50,39.35507368234912,22.66642797406184,4.4,0.3275708915469446,0.0,9.9,0.0,0.0,0.0,-1.2000000000000002,3.0,112.60000000000001,208,28,False,False,0.0,0.0,0.0,0.0,0.0,0.0,
51,39.355073695705805,22.666428045357378,4.4,0.32136128350569154,0.0,10.1,0.0,0.0,-0.03,-0.9,2.5,112.60000000000001,208,28,False,False,0.0,0.0,0.0,0.0,0.0,0.0,
52,39.35507387037547,22.666428108265947,4.6000000000000005,0.3153788623300611,0.0,10.3,0.0,0.0,-0.13,-0.8,2.6,112.60000000000001,208,28,False,False,0.0,0.0,0.0,0.0,0.0,0.0,
54,39.35507347318807,22.666428173456993,5.6000000000000005,0.31287396307118354,0.0,10.7,0.0,0.0,-0.3,-0.4,2.2,112.7,208,28,False,False,0.0,0.0,0.0,0.0,0.0,0.0,
55,39.355073583742126,22.666427992626314,6.1000000000000005,0.326856685557611,0.0,10.9,0.0,0.0,-0.23,0.0,2.3000000000000003,112.30000000000001,208,28,False,False,0.0,0.0,0.0,0.0,0.0,0.0,
56,39.355073957971875,22.66642770507198,6.5,0.350187080606629,0.0,11.1,0.0,0.0,-0.13,-2.0,1.0,106.2,208,28,False,False,0.0,0.0,0.0,0.0,0.0,0.0,
57,39.35507430335158,22.666427493796753,6.6000000000000005,0.37137443956143423,0.0,11.3,0.0,0.0,-0.04,-5.6000000000000005,1.6,97.9,208,28,False,False,0.0,0.0,0.0,0.0,0.0,0.0,
59,39.35507473454262,22.66642912982084,6.6000000000000005,0.2470927422795212,0.0,11.7,0.0,0.1,0.0,-27.700000000000003,2.2,91.7,208,28,False,False,0.0,0.0,0.0,0.0,0.0,0.0,
60,39.355075014696276,22.66643314991746,6.6000000000000005,0.17377141366727333,0.0,11.9,0.01,0.21,0.0,-27.200000000000003,3.5,91.10000000000001,208,28,False,False,0.0,0.0,0.0,0.0,0.0,0.0,
61,39.35507585033242,22.66643959441977,6.7,0.7074008467427577,0.0,12.1,0.01,0.31,-0.05,-22.8,4.800000000000001,90.4,208,28,False,False,0.0,0.0,0.0,0.0,0.0,0.0,
62,39.35507816591194,22.666448143363773,6.9,1.486151541683718,0.0,12.3,0.05,0.4,-0.13,-17.8,5.2,84.60000000000001,208,28,False,False,0.0,0.0,0.0,0.0,0.0,0.0,
64,39.355083360908054,22.66646830891107,7.4,3.31365608257175,0.0,12.7,0.07,0.47000000000000003,-0.07,-15.200000000000001,13.3,83.60000000000001,208,28,False,False,0.0,0.0,0.0,0.0,0.0,0.0,
65,39.35508572654834,22.66647907886598,7.6000000000000005,4.275448818102193,0.0,12.9,0.06,0.5,-0.12,-11.100000000000001,12.600000000000001,85.60000000000001,208,28,False,False,0.0,0.0,0.0,0.0,0.0,0.0,
66,39.355087482248045,22.666490856457834,8.0,5.300438197302714,0.0,13.1,0.03,0.53,-0.2,-12.4,11.100000000000001,88.30000000000001,208,28,False,False,0.0,0.0,0.0,0.0,0.0,0.0,
67,39.355088459463154,22.666503472741866,8.5,6.374350164028498,0.0,13.3,0.01,0.55,-0.23,-13.200000000000001,10.700000000000001,90.7,208,28,False,False,0.0,0.0,0.0,0.0,0.0,0.0,
69,39.35508905853551,22.66653044176964,9.200000000000001,8.64971060131313,0.0,13.7,0.0,0.6,-0.1,-27.5,10.200000000000001,90.9,208,28,False,False,0.0,0.0,0.0,0.0,0.0,0.0,
70,39.35508935719812,22.66654530113115,9.4,9.911572094888626,0.0,13.9,-0.01,0.66,-0.08,-26.200000000000003,4.4,92.5,208,28,False,False,0.0,0.0,0.0,0.0,0.0,0.0,
71,39.35508975254757,22.666561825427827,9.600000000000001,11.320176492685237,0.0,14.1,-0.02,0.74,-0.14,-21.6,1.6,93.10000000000001,208,28,False,False,0.0,0.0,0.0,0.0,0.0,0.0,
72,39.35509002627547,22.666579713372506,10.0,12.84579853554514,0.0,14.3,-0.01,0.78,-0.15,-25.200000000000003,2.8000000000000003,92.9,208,12,False,False,0.0,0.0,0.0,0.0,0.0,0.0,
74,39.355090851122334,22.666618954300947,10.600000000000001,16.203854411621236,0.0,14.7,0.0,0.86,-0.1,-24.400000000000002,6.300000000000001,92.60000000000001,208,12,False,False,0.0,0.0,0.0,0.0,0.0,0.0,
75,39.355091119832196,22.66663993317729,10.8,17.999701382359255,0.0,14.9,-0.01,0.89,-0.07,-19.900000000000002,14.3,92.5,208,12,False,False,0.0,0.0,0.0,0.0,0.0,0.0,
76,39.35509087419518,22.666661420060855,11.0,19.83496302809922,0.0,15.1,-0.05,0.91,-0.09,-13.600000000000001,16.6,95.7,208,12,False,False,0.0,0.0,0.0,0.0,0.0,0.0,
77,39.35509028315328,22.666682557804442,11.100000000000001,21.639145774189455,0.0,15.3,-0.09,0.9,-0.09,-13.200000000000001,18.2,98.5,208,12,False,False,0.0,0.0,0.0,0.0,0.0,0.0,
78,3.494906009622835e-216,3.158529731181452e-268,11.3,4945816.569248754,0.0,15.5,-0.13,0.88,-0.07,-11.5,22.900000000000002,101.7,208,12,False,False,0.0,0.0,0.0,0.0,0.0,0.0,
79,39.35508637908971,22.666723998992452,11.4,25.16359956176392,0.0,15.7,-0.19,0.85,-0.06,-9.200000000000001,26.3,106.30000000000001,208,12,False,False,0.0,0.0,0.0,0.0,0.0,0.0,
80,39.35508296057637,22.66674322027124,11.5,26.79682954321845,0.0,15.9,-0.26,0.81,-0.06,-8.3,26.900000000000002,111.10000000000001,208,12,False,False,0.0,0.0,0.0,0.0,0.0,0.0,
81,39.35507824105099,22.666761456133685,11.600000000000001,28.349829275582454,0.0,16.1,-0.33,0.76,-0.05,-8.1,25.400000000000002,116.30000000000001,208,12,False,False,0.0,0.0,0.0,0.0,0.0,0.0,
82,39.35507185381799,22.66677881683121,11.700000000000001,29.83916327126869,0.0,16.3,-0.39,0.7000000000000001,-0.05,-7.5,22.700000000000003,121.7,208,12,False,False,0.0,0.0,0.0,0.0,0.0,0.0,
84,39.3550575038072,22.666809249765343,11.9,32.505901413779306,0.0,16.7,-0.46,0.5700000000000001,-0.07,3.8000000000000003,19.200000000000003,132.6,208,12,False,False,0.0,0.0,0.0,0.0,0.0,0.0,
85,39.35504978951702,22.666821585914075,11.9,33.62236199695411,0.0,16.9,-0.43,0.47000000000000003,-0.08,23.0,17.2,139.9,208,12,False,False,0.0,0.0,0.0,0.0,0.0,0.0,
86,39.355042960342395,22.666831039883512,12.0,34.50004474834591,0.0,17.1,-0.38,0.36,-0.04,22.5,20.900000000000002,145.6,208,12,False,False,0.0,0.0,0.0,0.0,0.0,0.0,
87,39.35503688793098,22.66683720035788,12.0,35.099809565182994,0.0,17.3,-0.33,0.23,-0.02,21.5,22.200000000000003,152.8,208,12,False,False,0.0,0.0,0.0,0.0,0.0,0.0,
89,39.35502697344997,22.666841903058252,12.100000000000001,35.645910472805426,0.0,17.7,-0.2,0.01,-0.01,24.900000000000002,15.4,163.3,208,12,False,False,0.0,0.0,0.0,0.0,0.0,0.0,
90,39.35502365315792,22.666841136261038,12.100000000000001,35.6366719790765,0.0,17.9,-0.13,-0.04,0.0,14.200000000000001,2.6,160.60000000000002,208,12,False,False,0.0,0.0,0.0,0.0,0.0,0.0,
91,39.355022002578856,22.666840089094343,12.100000000000001,35.57704314978038,0.0,18.1,-0.08,-0.05,0.0,4.7,-3.6,161.5,208,12,False,False,0.0,0.0,0.0,0.0,0.0,0.0,
92,39.355021063503514,22.666839048663153,12.100000000000001,35.50589251067209,0.0,18.3,-0.04,-0.04,0.0,-0.1,-4.3,161.70000000000002,208,12,False,False,0.0,0.0,0.0,0.0,0.0,0.0,
94,39.3550196780403,22.666838119148128,12.0,35.45293513744677,0.0,18.7,-0.01,-0.02,0.0,-3.1,-2.0,165.5,208,12,False,False,0.0,0.0,0.0,0.0,0.0,0.0,
95,39.35501871208444,22.66683704087337,12.0,35.38003942815305,0.0,18.9,-0.01,-0.01,0.0,-3.0,-1.8,171.3,208,12,False,False,0.0,0.0,0.0,0.0,0.0,0.0,
96,39.35501822491341,22.666835664857754,12.0,35.27298949639069,0.0,19.1,0.0,-0.02,0.0,-2.4000000000000004,-3.1,-178.4,208,12,False,False,0.0,0.0,0.0,0.0,0.0,0.0,
97,39.355018107198134,22.66683425924088,12.0,35.15632176551681,0.0,19.3,0.0,-0.02,0.0,-2.0,-4.6000000000000005,-166.3,208,12,False,False,0.0,0.0,0.0,0.0,0.0,0.0,
98,39.355018237291475,22.66683316412702,12.100000000000001,35.06108926252021,0.0,19.5,0.0,-0.01,0.0,-1.4000000000000001,-6.6000000000000005,-154.60000000000002,208,12,False,False,0.0,0.0,0.0,0.0,0.0,0.0,
99,39.35501854215028,22.666832255394915,12.100000000000001,34.97820728162563,0.0,19.7,0.0,-0.01,0.0,-1.1,-7.800000000000001,-143.6,208,12,False,False,0.0,0.0,0.0,0.0,0.0,0.0,
100,39.35501861610138,22.66683158121288,12.100000000000001,34.91969889359539,0.0,19.9,0.0,0.0,0.0,-0.2,-8.9,-135.6,208,12,False,False,0.0,0.0,0.0,0.0,0.0,0.0,
101,39.355018634792586,22.66683125147788,12.100000000000001,34.891425167924574,0.0,20.1,0.0,0.0,0.0,-0.5,-8.5,-133.5,208,12,False,False,0.0,0.0,0.0,0.0,0.0,0.0,
102,39.35501866849159,22.666830962378157,12.100000000000001,34.86629706896353,0.0,20.3,0.0,0.01,0.0,-0.2,-7.9,-133.6,208,12,False,False,0.0,0.0,0.0,0.0,0.0,0.0,
104,39.35501905899431,22.666831160857264,12.100000000000001,34.875481490682404,0.0,20.7,0.01,0.01,0.0,-1.2000000000000002,-1.2000000000000002,-130.5,208,12,False,False,0.0,0.0,0.0,0.0,0.0,0.0,
105,39.3550199210735,22.66683129605703,12.100000000000001,34.870308693697204,0.0,20.9,0.01,0.0,0.0,-1.4000000000000001,-9.4,-130.3,208,12,False,False,0.0,0.0,0.0,0.0,0.0,0.0,
106,39.35502023590734,22.666831442335223,12.100000000000001,34.876694956552676,0.0,21.1,0.0,0.02,0.0,-1.2000000000000002,-20.8,-130.1,208,12,False,False,0.0,0.0,0.0,0.0,0.0,0.0,
107,39.355019672776265,22.66683229607481,12.100000000000001,34.959759671806296,0.0,21.3,-0.05,0.06,0.0,-0.6000000000000001,-23.0,-128.9,208,12,False,False,0.0,0.0,0.0,0.0,0.0,0.0,
108,39.355018278322625,22.666834400777994,12.100000000000001,35.1649505323589,0.0,21.5,-0.11,0.1,0.0,-0.1,-26.8,-127.5,208,12,False,False,0.0,0.0,0.0,0.0,0.0,0.0,
109,39.35501575942747,22.666837674864023,12.100000000000001,35.49202718006705,0.0,21.7,-0.17,0.15,0.0,-0.1,-26.900000000000002,-126.7,208,12,False,False,0.0,0.0,0.0,0.0,0.0,0.0,
110,39.35501241506814,22.66684164289654,12.200000000000001,35.896480141848315,0.0,21.9,-0.22,0.18,0.0,-8.1,-21.400000000000002,-124.80000000000001,208,12,False,False,0.0,0.0,0.0,0.0,0.0,0.0,
111,39.35500786805632,22.66684592803308,12.200000000000001,36.35692351788936,0.0,22.1,-0.27,0.17,0.0,-9.1,-9.3,-120.5,208,12,False,False,0.0,0.0,0.0,0.0,0.0,0.0,
112,39.355002893458504,22.666849920392597,12.200000000000001,36.80780911065039,0.0,22.3,-0.27,0.14,0.0,-6.4,-4.2,-116.5,208,12,False,False,0.0,0.0,0.0,0.0,0.0,0.0,
113,39.35499815742651,22.666853324316204,12.3,37.209326380879304,0.0,22.5,-0.27,0.12,0.0,-7.2,-3.8000000000000003,-112.7,208,12,False,False,0.0,0.0,0.0,0.0,0.0,0.0,
114,39.35499388801456,22.666856260026204,12.3,37.56478948967897,0.0,22.7,-0.26,0.09,0.0,-8.700000000000001,-3.5,-109.0,208,12,False,False,0.0,0.0,0.0,0.0,0.0,0.0,
115,39.35498952480572,22.666858149676308,12.3,37.83998159222981,0.0,22.9,-0.26,0.04,0.0,-22.900000000000002,-3.6,-107.30000000000001,208,12,False,False,0.0,0.0,0.0,0.0,0.0,0.0,
116,39.354984713923116,22.666858344344146,12.3,37.99226190706572,0.0,23.1,-0.27,-0.04,0.0,-24.400000000000002,-2.3000000000000003,-107.10000000000001,208,12,False,False,0.0,0.0,0.0,0.0,0.0,0.0,
117,39.35497987993778,22.6668564151214,12.3,37.976553815607744,0.0,23.3,-0.27,-0.12,0.0,-18.5,-2.0,-105.5,208,12,False,False,0.0,0.0,0.0,0.0,0.0,0.0,
118,39.35497517579737,22.66685251378105,12.3,37.80270670727491,0.0,23.5,-0.27,-0.17,0.0,-10.600000000000001,2.4000000000000004,-105.30000000000001,208,12,False,False,0.0,0.0,0.0,0.0,0.0,0.0,
119,39.354970617743284,22.666848095437874,12.3,37.591027662591,0.0,23.7,-0.23,-0.21,0.0,0.8,12.4,-100.5,208,12,False,False,0.0,0.0,0.0,0.0,0.0,0.0,
120,39.354966672002426,22.666843863963937,12.3,37.38233499479281,0.0,23.9,-0.17,-0.19,0.0,3.5,7.300000000000001,-99.0,208,12,False,False,0.0,0.0,0.0,0.0,0.0,0.0,
121,39.354963571949334,22.666839194807693,12.3,37.11453876909274,0.0,24.1,-0.14,-0.21,0.0,-15.700000000000001,-1.1,-97.7,208,12,False,False,0.0,0.0,0.0,0.0,0.0,0.0,
122,39.35496068988618,22.666833882178345,12.3,36.792114837853376,0.0,24.3,-0.13,-0.27,0.0,-20.700000000000003,-4.6000000000000005,-96.7,208,12,False,False,0.0,0.0,0.0,0.0,0.0,0.0,
124,39.35495503548296,22.666818849256302,12.3,35.807522475624516,0.0,24.7,-0.14,-0.34,0.0,12.600000000000001,-1.1,-97.60000000000001,208,12,False,False,0.0,0.0,0.0,0.0,0.0,0.0,
125,39.35495278387608,22.666811829104287,12.3,35.341858585285905,0.0,24.9,-0.1,-0.26,0.0,28.3,4.6000000000000005,-96.30000000000001,208,12,False,False,0.0,0.0,0.0,0.0,0.0,0.0,
126,39.35495132776835,22.666807510045487,12.3,35.06140382539079,0.0,25.1,-0.05,-0.16,0.0,29.6,2.2,-97.10000000000001,208,12,False,False,0.0,0.0,0.0,0.0,0.0,0.0,
127,39.35495057418326,22.66680553495912,12.3,34.93779435233437,0.0,25.3,-0.01,-0.06,0.0,17.400000000000002,-2.8000000000000003,-98.0,208,12,False,False,0.0,0.0,0.0,0.0,0.0,0.0,
129,39.35494995693608,22.666804718598122,12.3,34.900284172752805,0.0,25.7,0.0,0.0,0.0,3.5,-6.1000000000000005,-96.5,208,12,False,False,0.0,0.0,0.0,0.0,0.0,0.0,
130,39.35494955227369,22.666804565407165,12.3,34.90597807581776,0.0,25.9,0.0,0.0,0.01,1.9000000000000001,-6.300000000000001,-96.80000000000001,208,12,False,False,0.0,0.0,0.0,0.0,0.0,0.0,
131,39.35494931184906,22.666804099032184,12.3,34.87976829083102,0.0,26.1,0.0,0.0,0.01,1.1,-6.1000000000000005,-96.7,208,12,False,False,0.0,0.0,0.0,0.0,0.0,0.0,
132,39.35494942680608,22.666804024297857,12.200000000000001,34.8687964213054,0.0,26.3,0.0,0.0,0.01,0.30000000000000004,-6.6000000000000005,-99.7,208,12,False,False,0.0,0.0,0.0,0.0,0.0,0.0,
134,39.354949870161526,22.666804017717343,12.200000000000001,34.848742416158096,0.0,26.7,0.0,0.0,0.0,-0.8,-6.9,-102.7,208,12,False,False,0.0,0.0,0.0,0.0,0.0,0.0,
135,39.35494989567993,22.666803863462853,12.200000000000001,34.83543935638338,0.0,26.9,0.0,0.0,0.0,0.30000000000000004,-2.9000000000000004,-102.80000000000001,208,12,False,False,0.0,0.0,0.0,0.0,0.0,0.0,
136,39.35495010548939,22.666803832177674,12.200000000000001,34.82374287610491,0.0,27.1,0.01,0.0,0.0,-2.0,-2.8000000000000003,-104.9,208,12,False,False,0.0,0.0,0.0,0.0,0.0,0.0,
137,39.35495037344554,22.666803455625576,12.200000000000001,34.7822307976807,0.0,27.3,0.01,-0.01,0.0,-6.7,-6.0,-106.9,208,12,False,False,0.0,0.0,0.0,0.0,0.0,0.0,
138,3.636068913106999e-95,2.6712442524808516e-270,12.200000000000001,4945816.569248754,0.0,27.5,0.0,-0.03,0.0,-9.3,-10.5,-106.2,208,12,False,False,0.0,0.0,0.0,0.0,0.0,0.0,
139,39.35495025823131,22.666801072834495,12.3,34.599183914002644,0.0,27.7,-0.01,-0.06,0.0,-12.3,-10.0,-106.10000000000001,208,12,False,False,0.0,0.0,0.0,0.0,0.0,0.0,
140,39.35494972125693,22.66679907816123,12.200000000000001,34.46573552235143,0.0,27.9,-0.03,-0.1,0.04,-16.400000000000002,-9.600000000000001,-105.0,208,12,False,False,0.0,0.0,0.0,0.0,0.0,0.0,
141,39.35494871655657,22.66679615561244,12.0,34.280839889492505,0.0,28.1,-0.04,-0.12,0.14,-21.5,-10.3,-102.80000000000001,208,12,False,False,0.0,0.0,0.0,0.0,0.0,0.0,
142,39.354947913570626,22.66679226922784,11.600000000000001,34.01240248581052,0.0,28.3,-0.05,-0.16,0.22,-24.6,-9.700000000000001,-101.9,208,12,False,False,0.0,0.0,0.0,0.0,0.0,0.0,
144,39.354945055201114,22.666780583486137,10.700000000000001,33.23512606199822,0.0,28.7,-0.1,-0.29,0.16,-5.800000000000001,-2.2,-105.0,208,12,False,False,0.0,0.0,0.0,0.0,0.0,0.0,
145,39.35494337626309,22.666773315444352,10.5,32.754619207381936,0.0,28.9,-0.08,-0.29,0.06,7.9,-2.3000000000000003,-107.2,208,12,False,False,0.0,0.0,0.0,0.0,0.0,0.0,
146,39.35494205926042,22.66676754749773,10.5,32.37678636229854,0.0,29.1,-0.05,-0.22,0.02,25.700000000000003,-8.4,-109.5,208,12,False,False,0.0,0.0,0.0,0.0,0.0,0.0,
147,39.3549408426521,22.666764238382598,10.4,32.18529825998597,0.0,29.3,-0.03,-0.12,0.02,22.700000000000003,-9.700000000000001,-109.4,208,12,False,False,0.0,0.0,0.0,0.0,0.0,0.0,
149,39.354939382955074,22.666761767253544,10.200000000000001,32.07210631233321,0.0,29.7,0.0,-0.01,0.04,7.7,-7.300000000000001,-108.2,208,12,False,False,0.0,0.0,0.0,0.0,0.0,0.0,
150,39.35493872321148,22.66676122483704,10.200000000000001,32.065171816462914,0.0,29.9,0.0,0.0,0.0,2.9000000000000004,-8.700000000000001,-107.80000000000001,208,12,False,False,0.0,0.0,0.0,0.0,0.0,0.0,
151,39.354938705719505,22.666761170154484,10.200000000000001,32.061930310676914,0.0,30.1,0.0,0.0,0.0,0.4,-8.700000000000001,-107.7,208,12,False,False,0.0,0.0,0.0,0.0,0.0,0.0,
152,39.35493897066884,22.66676106118818,10.200000000000001,32.03985162687731,0.0,30.3,0.0,0.0,0.0,-0.30000000000000004,-8.1,-107.60000000000001,208,12,False,False,0.0,0.0,0.0,0.0,0.0,0.0,
153,-8.216741522650199e-290,-1.577226445579229e-164,10.200000000000001,4945816.569248754,0.0,30.5,0.0,0.0,0.0,-0.1,-7.2,-107.60000000000001,208,12,False,False,0.0,0.0,0.0,0.0,0.0,0.0,
154,39.35493895677464,22.66676063593587,10.200000000000001,32.0082717287624,0.0,30.7,0.0,0.0,0.0,0.2,-6.300000000000001,-107.60000000000001,208,12,False,False,0.0,0.0,0.0,0.0,0.0,0.0,
155,39.35493909636776,22.666760545935613,10.200000000000001,31.994162822606903,0.0,30.9,0.0,0.0,0.0,0.2,-5.4,-107.60000000000001,208,12,False,False,0.0,0.0,0.0,0.0,0.0,0.0,
156,39.35493915276696,22.666760347722363,10.200000000000001,31.976168293093295,0.0,31.1,0.0,0.0,0.0,0.30000000000000004,-6.1000000000000005,-107.5,208,12,False,False,0.0,0.0,0.0,0.0,0.0,0.0,
157,39.35493904627325,22.66676039637833,10.200000000000001,31.985412759959143,0.0,31.3,0.0,0.0,0.0,0.2,-6.4,-107.2,208,12,False,False,0.0,0.0,0.0,0.0,0.0,0.0,
158,5.005883584040457e-209,-0.013466883013480134,10.200000000000001,4946453.564270259,0.0,31.5,0.0,0.0,0.0,0.30000000000000004,-6.4,-107.4,208,12,False,False,0.0,0.0,0.0,0.0,0.0,0.0,
159,39.35493877650974,22.666760254154887,10.200000000000001,31.988686330538105,0.0,31.7,0.0,0.0,0.0,0.9,-6.5,-107.4,208,12,False,False,0.0,0.0,0.0,0.0,0.0,0.0,
160,39.354938970514695,22.666760126178172,10.3,31.968844458474564,0.0,31.9,0.0,0.0,0.0,0.8,-6.300000000000001,-107.4,208,28,False,False,0.0,0.0,0.0,0.0,0.0,0.0,
161,39.3549388228352,22.666759872905676,10.3,31.957328611613864,0.0,32.1,0.0,0.0,0.0,0.4,-5.6000000000000005,-107.0,208,28,False,False,0.0,0.0,0.0,0.0,0.0,0.0,
162,39.35493895339966,22.66675952918979,10.3,31.924419958824373,0.0,32.3,0.0,0.0,0.0,1.3,-6.9,-107.10000000000001,208,28,False,False,0.0,0.0,0.0,0.0,0.0,0.0,
164,39.354938987150064,22.666758936411227,10.3,31.877674200178724,0.0,32.7,0.0,0.0,0.0,2.2,-8.6,-107.10000000000001,208,12,False,False,0.0,0.0,0.0,0.0,0.0,0.0,
165,39.354939037587236,22.666758699645445,10.3,31.857072728909785,0.0,32.9,0.0,0.0,0.0,1.2000000000000002,-8.1,-107.0,208,12,False,False,0.0,0.0,0.0,0.0,0.0,0.0,
166,39.35493903918051,22.666758357015276,10.3,31.830999391036595,0.0,33.1,0.0,0.0,0.0,0.9,-7.2,-106.60000000000001,208,12,False,False,0.0,0.0,0.0,0.0,0.0,0.0,
167,39.35493889919337,22.66675834057504,10.3,31.837087232093857,0.0,33.3,0.0,0.0,0.0,1.0,-6.7,-107.0,208,12,False,False,0.0,0.0,0.0,0.0,0.0,0.0,
168,6.341078433105417e-190,-2.5149653164678987e-210,10.3,4945816.569248754,0.0,33.5,0.0,0.01,0.0,-0.7000000000000001,-6.1000000000000005,-106.9,208,28,False,False,0.0,0.0,0.0,0.0,0.0,0.0,
169,39.354939103991605,22.66675830133565,10.3,31.823382277668717,0.0,33.7,0.0,0.01,0.0,-1.3,-6.1000000000000005,-106.4,208,28,False,False,0.0,0.0,0.0,0.0,0.0,0.0,
170,39.35493897186812,22.66675841462254,10.3,31.838894256928025,0.0,33.9,0.0,0.0,0.0,-1.7000000000000002,-5.2,-106.30000000000001,208,28,False,False,0.0,0.0,0.0,0.0,0.0,0.0,
171,39.35493897615118,22.666758249954388,10.3,31.826182062984053,0.0,34.1,0.0,0.0,0.0,-2.0,-5.1000000000000005,-106.4,208,28,False,False,0.0,0.0,0.0,0.0,0.0,0.0,
172,39.35493905609002,22.666757958151493,10.3,31.7998650936635,0.0,34.3,0.0,0.0,0.0,-0.9,-6.2,-106.4,208,28,False,False,0.0,0.0,0.0,0.0,0.0,0.0,
173,-3.301730389146567e-08,1.1158095764946632e-227,10.200000000000001,4945816.572571543,0.0,34.5,0.0,0.0,0.0,-0.4,-7.1000000000000005,-106.5,208,28,False,False,0.0,0.0,0.0,0.0,0.0,0.0,
174,39.354939050744775,22.666757504627316,10.200000000000001,31.765761531718493,0.0,34.7,0.0,0.0,0.0,0.1,-7.0,-106.60000000000001,208,28,False,False,0.0,0.0,0.0,0.0,0.0,0.0,
175,39.354939149854495,22.666757318400826,10.200000000000001,31.746444249774367,0.0,34.9,0.0,0.0,0.0,0.30000000000000004,-7.0,-106.80000000000001,208,28,False,False,0.0,0.0,0.0,0.0,0.0,0.0,
176,39.35493922098736,22.66675704193034,10.3,31.72175424342193,0.0,35.1,0.0,0.0,0.0,1.1,-7.2,-107.10000000000001,208,12,False,False,0.0,0.0,0.0,0.0,0.0,0.0,
177,39.354939163834366,22.666756810592933,10.3,31.707221883452913,0.0,35.3,0.0,0.0,0.0,1.4000000000000001,-6.7,-107.10000000000001,208,12,False,False,0.0,0.0,0.0,0.0,0.0,0.0,
178,-6.515783787696044e-224,-1.8466203434308315e-221,10.3,4945816.569248754,0.0,35.5,0.0,0.0,0.0,1.3,-7.0,-107.10000000000001,208,12,False,False,0.0,0.0,0.0,0.0,0.0,0.0,
179,39.354939170224675,22.666756413169388,10.3,31.676772860313754,0.0,35.7,0.0,0.0,0.0,1.3,-7.2,-107.10000000000001,208,12,False,False,0.0,0.0,0.0,0.0,0.0,0.0,
180,39.35493917013901,22.666756082525925,10.3,31.651730314187027,0.0,35.9,0.0,0.0,0.0,2.0,-7.5,-107.2,208,12,False,False,0.0,0.0,0.0,0.0,0.0,0.0,
181,39.35493930663119,22.666755829962455,10.3,31.625418380670233,0.0,36.1,0.0,0.0,0.0,3.4000000000000004,-7.9,-107.30000000000001,208,12,False,False,0.0,0.0,0.0,0.0,0.0,0.0,
182,39.354939450164714,22.666755718979914,10.3,31.609462046585417,0.0,36.3,0.0,0.0,0.0,2.9000000000000004,-7.300000000000001,-107.30000000000001,208,12,False,False,0.0,0.0,0.0,0.0,0.0,0.0,
184,39.354939217475284,22.666756114786047,10.3,31.65168363016192,0.0,36.7,0.0,0.01,0.0,-1.0,-7.800000000000001,-106.4,208,12,False,False,0.0,0.0,0.0,0.0,0.0,0.0,
185,39.35493937745569,22.666756237423034,10.3,31.652565373798563,0.0,36.9,0.0,0.0,0.0,-1.6,-7.800000000000001,-105.9,208,12,False,False,0.0,0.0,0.0,0.0,0.0,0.0,
186,39.35493949335495,22.666756087621977,10.3,31.635125332908924,0.0,37.1,0.0,0.0,0.0,-1.1,-7.1000000000000005,-105.80000000000001,208,12,False,False,0.0,0.0,0.0,0.0,0.0,0.0,
187,39.35493952580331,22.666755866631693,10.3,31.61667399993632,0.0,37.3,0.0,0.0,0.0,0.0,-6.2,-106.5,208,12,False,False,0.0,0.0,0.0,0.0,0.0,0.0,
189,39.354939352219944,22.666755635117024,10.3,31.608261100997776,0.0,37.7,0.0,0.0,0.0,0.8,-5.800000000000001,-107.10000000000001,208,28,False,False,0.0,0.0,0.0,0.0,0.0,0.0,
190,39.35493931125688,22.666755573122764,10.3,31.605721572532037,0.0,37.9,0.0,0.0,0.0,0.8,-6.0,-107.10000000000001,208,28,False,False,0.0,0.0,0.0,0.0,0.0,0.0,
191,39.35493943010291,22.666755564570302,10.3,31.598819868729837,0.0,38.1,0.0,0.0,0.0,0.5,-6.0,-107.10000000000001,208,28,False,False,0.0,0.0,0.0,0.0,0.0,0.0,
192,39.35493936839276,22.666755331947794,10.3,31.58444888096359,0.0,38.3,0.0,0.0,0.0,0.6000000000000001,-6.2,-107.0,208,12,False,False,0.0,0.0,0.0,0.0,0.0,0.0,
194,39.354939819157885,22.666755259783677,10.3,31.555276866854626,0.0,38.7,0.0,0.0,0.0,0.1,-6.4,-107.10000000000001,208,12,False,False,0.0,0.0,0.0,0.0,0.0,0.0,
195,39.35493967827985,22.6667552153153,10.200000000000001,31.559310375377365,0.0,38.9,0.0,0.0,0.0,-1.2000000000000002,-5.6000000000000005,-106.60000000000001,208,12,False,False,0.0,0.0,0.0,0.0,0.0,0.0,
196,39.35493987358684,22.666755183055212,10.200000000000001,31.54660339995041,0.0,39.1,0.0,0.0,0.0,-0.8,-5.6000000000000005,-106.5,208,12,False,False,0.0,0.0,0.0,0.0,0.0,0.0,
197,39.3549399408307,22.666755046082898,10.200000000000001,31.532691410687455,0.0,39.3,0.0,0.0,0.0,0.30000000000000004,-5.0,-106.80000000000001,208,28,False,False,0.0,0.0,0.0,0.0,0.0,0.0,
199,39.35493990774845,22.66675477763312,10.200000000000001,31.51408694600658,0.0,39.7,0.0,0.0,0.0,0.0,-4.7,-106.9,208,28,False,False,0.0,0.0,0.0,0.0,0.0,0.0,
200,39.354939832007034,22.66675470626661,10.200000000000001,31.512662162459012,0.0,39.9,0.0,0.0,0.0,0.2,-4.7,-106.9,208,28,False,False,0.0,0.0,0.0,0.0,0.0,0.0,
201,39.35494009150836,22.666754675646146,10.200000000000001,31.496704433094767,0.0,40.1,0.0,0.0,0.0,-0.1,-4.9,-106.9,208,12,False,False,0.0,0.0,0.0,0.0,0.0,0.0,
202,39.35494029166378,22.666754552056446,10.200000000000001,31.47683014708415,0.0,40.3,0.0,0.0,0.0,-1.3,-4.800000000000001,-106.7,208,12,False,False,0.0,0.0,0.0,0.0,0.0,0.0,
204,39.35494056569324,22.666754449138878,10.200000000000001,31.454658318120444,0.0,40.7,0.0,0.0,0.0,-2.5,-5.300000000000001,-106.30000000000001,208,28,False,False,0.0,0.0,0.0,0.0,0.0,0.0,
205,39.35494085956172,22.666754218155948,10.200000000000001,31.421749385770454,0.0,40.9,0.0,0.0,0.0,-2.3000000000000003,-6.2,-106.0,208,28,False,False,0.0,0.0,0.0,0.0,0.0,0.0,
206,39.35494110755021,22.666753948819892,10.200000000000001,31.388341198866488,0.0,41.1,0.0,0.0,0.0,-2.0,-6.2,-105.9,208,28,False,False,0.0,0.0,0.0,0.0,0.0,0.0,
207,39.354941252334356,22.66675348718641,10.200000000000001,31.34574250646502,0.0,41.3,0.0,0.0,0.0,-1.3,-6.4,-106.10000000000001,208,28,False,False,0.0,0.0,0.0,0.0,0.0,0.0,
209,39.354941062458245,22.666752752095732,10.200000000000001,31.299940233402786,0.0,41.7,0.0,0.0,0.0,-0.2,-5.0,-106.7,208,28,False,False,0.0,0.0,0.0,0.0,0.0,0.0,
210,39.35494116633074,22.666752471570614,10.200000000000001,31.27322469893497,0.0,41.9,0.0,0.0,0.0,-0.1,-5.300000000000001,-106.80000000000001,208,28,False,False,0.0,0.0,0.0,0.0,0.0,0.0,
211,39.354941198761985,22.666752050040646,10.200000000000001,31.23957135912009,0.0,42.1,0.0,0.0,0.0,0.1,-5.4,-106.80000000000001,208,28,False,False,0.0,0.0,0.0,0.0,0.0,0.0,
212,39.35494138175094,22.66675179419799,10.200000000000001,31.210573589636493,0.0,42.3,0.0,0.0,0.0,0.2,-5.4,-106.80000000000001,208,28,False,False,0.0,0.0,0.0,0.0,0.0,0.0,
214,39.354941558332456,22.66675127726157,10.200000000000001,31.162122680363755,0.0,42.7,0.0,0.0,0.0,0.6000000000000001,-5.2,-107.0,208,12,False,False,0.0,0.0,0.0,0.0,0.0,0.0,
215,39.35494151860291,22.66675126290407,10.200000000000001,31.163120484706116,0.0,42.9,0.0,0.0,0.0,0.6000000000000001,-4.7,-107.10000000000001,208,12,False,False,0.0,0.0,0.0,0.0,0.0,0.0,
216,39.354941798491566,22.666751023324395,10.200000000000001,31.130270892942956,0.0,43.1,0.0,0.0,0.0,0.6000000000000001,-5.800000000000001,-107.10000000000001,208,12,False,False,0.0,0.0,0.0,0.0,0.0,0.0,
217,39.35494188605419,22.666751065621416,10.200000000000001,31.128886031655778,0.0,43.3,0.0,0.0,0.0,0.0,-6.2,-107.10000000000001,208,12,False,False,0.0,0.0,0.0,0.0,0.0,0.0,
219,39.3549419973449,22.666750886839544,10.200000000000001,31.109495972527952,0.0,43.7,0.0,0.0,0.0,-1.2000000000000002,-5.7,-106.5,208,12,False,False,0.0,0.0,0.0,0.0,0.0,0.0,
220,39.35494192446454,22.666750881677046,10.200000000000001,31.112925151244223,0.0,43.9,0.0,0.0,0.0,-1.4000000000000001,-4.800000000000001,-106.5,208,12,False,False,0.0,0.0,0.0,0.0,0.0,0.0,
221,39.35494189965713,22.666750912674175,10.200000000000001,31.116576140976502,0.0,44.1,0.0,0.0,0.0,-1.8,-4.4,-106.5,208,12,False,False,0.0,0.0,0.0,0.0,0.0,0.0,
222,39.35494177788149,22.66675084753366,10.200000000000001,31.11802645078375,0.0,44.3,0.0,0.0,0.0,-1.3,-3.8000000000000003,-106.7,208,28,False,False,0.0,0.0,0.0,0.0,0.0,0.0,
223,-2.560099809662157e-120,-1.11598713345486e-55,10.200000000000001,4945816.569248754,0.0,44.5,0.0,0.0,0.0,-1.3,-3.6,-106.60000000000001,208,28,False,False,0.0,0.0,0.0,0.0,0.0,0.0,
224,39.354941754084884,22.66675054210445,10.200000000000001,31.096127587581197,0.0,44.7,0.0,0.0,0.0,-1.1,-3.2,-106.80000000000001,208,28,False,False,0.0,0.0,0.0,0.0,0.0,0.0,
225,39.35494146994747,22.666750211749033,10.200000000000001,31.086046626168955,0.0,44.9,0.0,0.0,0.0,-1.1,-3.1,-106.80000000000001,208,12,False,False,0.0,0.0,0.0,0.0,0.0,0.0,
226,39.35494154757344,22.666750129791644,10.200000000000001,31.075752755793904,0.0,45.1,0.0,0.0,0.0,-1.5,-3.2,-106.9,208,12,False,False,0.0,0.0,0.0,0.0,0.0,0.0,
227,39.354941586052334,22.666749713534955,10.200000000000001,31.04220594349255,0.0,45.3,0.0,0.0,0.0,-1.4000000000000001,-2.9000000000000004,-106.80000000000001,208,12,False,False,0.0,0.0,0.0,0.0,0.0,0.0,
228,-2.475130782563963e-291,5.329500508871254e-64,10.200000000000001,4945816.569248754,0.0,45.5,0.0,0.0,0.0,-1.5,-2.8000000000000003,-106.80000000000001,208,12,False,False,0.0,0.0,0.0,0.0,0.0,0.0,
229,39.35494164252005,22.666748996989387,10.200000000000001,30.984986981395462,0.0,45.7,0.0,0.0,0.0,-0.9,-2.9000000000000004,-106.9,208,12,False,False,0.0,0.0,0.0,0.0,0.0,0.0,
230,39.35494168949653,22.666748537682352,10.200000000000001,30.947749730665258,0.0,45.9,0.0,0.0,0.0,-0.30000000000000004,-3.3000000000000003,-107.0,208,28,False,False,0.0,0.0,0.0,0.0,0.0,0.0,
231,39.3549417107576,22.66674832216475,10.200000000000001,30.930320653461894,0.0,46.1,0.0,0.0,0.0,0.2,-3.5,-107.10000000000001,208,28,False,False,0.0,0.0,0.0,0.0,0.0,0.0,
232,39.3549418828162,22.666748047887804,10.200000000000001,30.90048073958784,0.0,46.3,0.0,0.0,0.0,0.1,-4.0,-106.9,208,28,False,False,0.0,0.0,0.0,0.0,0.0,0.0,
233,3.265647797634598e-69,2.0453150617227705e-105,10.200000000000001,4945816.569248754,0.0,46.5,0.0,0.0,0.0,-0.2,-3.2,-106.80000000000001,208,12,False,False,0.0,0.0,0.0,0.0,0.0,0.0,
234,39.35494235400292,22.666747434747236,10.200000000000001,30.82921151802971,0.0,46.7,0.0,-0.01,0.0,1.0,-4.800000000000001,-107.10000000000001,208,28,False,False,0.0,0.0,0.0,0.0,0.0,0.0,
235,39.354942744462775,22.66674698860122,10.200000000000001,30.77485395860417,0.0,46.9,0.0,0.0,0.02,1.4000000000000001,-6.0,-107.2,208,28,False,False,0.0,0.0,0.0,0.0,0.0,0.0,
236,39.35494328381844,22.666746906621718,10.0,30.740272494513835,0.0,47.1,0.01,0.0,0.11,1.3,-6.6000000000000005,-107.10000000000001,208,28,False,False,0.0,0.0,0.0,0.0,0.0,0.0,
237,39.354943495092634,22.666746684767364,9.8,30.712365034684918,0.0,47.3,0.0,0.0,0.13,0.7000000000000001,-6.0,-107.10000000000001,208,28,False,False,0.0,0.0,0.0,0.0,0.0,0.0,
239,39.35494320237196,22.666746338193306,9.600000000000001,30.70148887951524,0.0,47.7,0.0,0.0,0.0,2.2,-4.9,-107.0,208,12,False,False,0.0,0.0,0.0,0.0,0.0,0.0,
240,39.35494308636989,22.666746461628005,9.700000000000001,30.716943065639015,0.0,47.9,0.0,0.02,0.0,14.5,-8.700000000000001,-108.2,208,28,False,False,0.0,0.0,0.0,0.0,0.0,0.0,
241,39.35494297047061,22.666747574489488,9.700000000000001,30.807343905215962,0.0,48.1,0.0,0.07,0.0,22.3,-11.200000000000001,-109.4,208,28,False,False,0.0,0.0,0.0,0.0,0.0,0.0,
242,39.35494317148263,22.666750232643363,9.700000000000001,30.99847694051525,0.0,48.3,0.0,0.15,0.0,25.0,-12.4,-109.80000000000001,208,28,False,False,0.0,0.0,0.0,0.0,0.0,0.0,
243,-6.203997955828768e-269,1.9845153651921225e-233,9.700000000000001,4945816.569248754,0.0,48.5,0.0,0.23,0.0,25.5,-14.0,-110.0,208,12,False,False,0.0,0.0,0.0,0.0,0.0,0.0,
244,39.3549436867676,22.66676177412338,9.700000000000001,31.8523087285,0.0,48.7,0.0,0.31,0.0,24.3,-13.8,-109.9,208,12,False,False,0.0,0.0,0.0,0.0,0.0,0.0,
245,39.354944061500056,22.666770099323887,9.700000000000001,32.47300311927637,0.0,48.9,0.0,0.39,0.0,22.8,-11.9,-109.5,208,12,False,False,0.0,0.0,0.0,0.0,0.0,0.0,
246,39.35494422560933,22.666779887371806,9.700000000000001,33.22105266678871,0.0,49.1,0.0,0.45,0.0,21.6,-10.9,-109.30000000000001,208,12,False,False,0.0,0.0,0.0,0.0,0.0,0.0,
247,39.354944491329675,22.666790900661343,9.700000000000001,34.06416244475605,0.0,49.3,0.0,0.51,0.0,18.900000000000002,-8.700000000000001,-108.60000000000001,208,12,False,False,0.0,0.0,0.0,0.0,0.0,0.0,
249,39.35494576226428,22.66681405372164,9.700000000000001,35.82203196751616,0.0,49.7,0.0,0.47000000000000003,0.0,-27.1,6.800000000000001,-108.60000000000001,208,12,False,False,0.0,0.0,0.0,0.0,0.0,0.0,
250,39.354946557831944,22.66682338910887,9.700000000000001,36.5255097069892,0.0,49.9,0.01,0.35000000000000003,0.01,-23.900000000000002,5.9,-107.60000000000001,208,28,False,False,0.0,0.0,0.0,0.0,0.0,0.0,
251,39.354947472219926,22.666830582747302,9.600000000000001,37.05776538184253,0.0,50.1,0.01,0.26,0.01,-25.400000000000002,5.7,-108.0,208,28,False,False,0.0,0.0,0.0,0.0,0.0,0.0,
252,39.35494844054006,22.666835201652436,9.600000000000001,37.385227660055676,0.0,50.3,0.01,0.16,0.0,-15.700000000000001,0.9,-107.2,208,28,False,False,0.0,0.0,0.0,0.0,0.0,0.0,
254,39.354949545060975,22.666841190944346,9.600000000000001,37.81842761846536,0.0,50.7,-0.01,0.09,0.0,-9.8,-3.2,-89.9,208,28,False,False,0.0,0.0,0.0,0.0,0.0,0.0,
255,39.354949481029436,22.666843428055223,9.600000000000001,38.00011809130109,0.0,50.9,0.0,0.05,0.0,-17.2,-1.5,-88.4,208,28,False,False,0.0,0.0,0.0,0.0,0.0,0.0,
256,39.35494956104536,22.666844253655473,9.5,38.063010536126875,0.0,51.1,0.0,-0.01,0.0,-21.5,-2.5,-89.10000000000001,208,28,False,False,0.0,0.0,0.0,0.0,0.0,0.0,
257,39.354949742175485,22.666842881140294,9.5,37.9457520975298,0.0,51.3,0.0,-0.09,0.0,-22.0,-4.6000000000000005,-88.80000000000001,208,28,False,False,0.0,0.0,0.0,0.0,0.0,0.0,
259,39.35494943693974,22.66683460085102,9.600000000000001,37.296060590266926,0.0,51.7,0.0,-0.23,0.0,-18.5,-6.1000000000000005,-89.10000000000001,208,28,False,False,0.0,0.0,0.0,0.0,0.0,0.0,
260,39.35494916855532,22.66682845858749,9.600000000000001,36.817388233551014,0.0,51.9,0.0,-0.3,0.0,-19.0,-5.0,-89.10000000000001,208,28,False,False,0.0,0.0,0.0,0.0,0.0,0.0,
261,39.35494918676691,22.666820697252362,9.600000000000001,36.19930425150953,0.0,52.1,0.0,-0.36,0.0,-20.8,-0.8,-90.10000000000001,208,28,False,False,0.0,0.0,0.0,0.0,0.0,0.0,
262,39.354949248588454,22.666811633770724,9.600000000000001,35.47801836597753,0.0,52.3,0.0,-0.41000000000000003,0.0,-14.5,-5.300000000000001,-89.2,208,28,False,False,0.0,0.0,0.0,0.0,0.0,0.0,
263,-4.822294130265851e-55,3.9900274117338883e-35,9.600000000000001,4945816.569248754,0.0,52.5,0.0,-0.44,0.0,-9.5,-2.8000000000000003,-88.7,208,28,False,False,0.0,0.0,0.0,0.0,0.0,0.0,
264,39.35494927647116,22.66679091470124,9.600000000000001,33.84398890516963,0.0,52.7,0.01,-0.46,0.0,-8.200000000000001,-5.9,-88.0,208,28,False,False,0.0,0.0,0.0,0.0,0.0,0.0,
265,39.3549489110499,22.666779823047555,9.600000000000001,32.99329778042326,0.0,52.9,-0.01,-0.47000000000000003,0.01,-4.6000000000000005,-10.600000000000001,-90.5,208,28,False,False,0.0,0.0,0.0,0.0,0.0,0.0,
266,39.35494838903195,22.666768637669552,9.5,32.14872901309591,0.0,53.1,-0.02,-0.48,0.0,-5.5,-6.9,-93.10000000000001,208,28,False,False,0.0,0.0,0.0,0.0,0.0,0.0,
267,39.35494762838823,22.66675732770479,9.5,31.31333293552976,0.0,53.3,-0.03,-0.48,0.0,-5.7,-11.0,-92.4,208,28,False,False,0.0,0.0,0.0,0.0,0.0,0.0,
269,39.35494494468149,22.666734372478953,9.5,29.70518131233652,0.0,53.7,-0.06,-0.49,0.0,-2.9000000000000004,-9.600000000000001,-93.10000000000001,208,28,False,False,0.0,0.0,0.0,0.0,0.0,0.0,
270,39.354943583854286,22.666722983503664,9.5,28.9268960909692,0.0,53.9,-0.05,-0.49,0.0,-3.3000000000000003,-2.3000000000000003,-94.4,208,28,False,False,0.0,0.0,0.0,0.0,0.0,0.0,
271,39.35494231948137,22.6667116198534,9.5,28.158253816357767,0.0,54.1,-0.04,-0.49,0.0,-2.5,-3.2,-95.60000000000001,208,28,False,False,0.0,0.0,0.0,0.0,0.0,0.0,
272,39.35494149465186,22.66670050898657,9.600000000000001,27.395631555537864,0.0,54.3,-0.03,-0.46,0.0,18.8,-4.5,-96.7,208,28,False,False,0.0,0.0,0.0,0.0,0.0,0.0,
274,39.35494045633839,22.666684065420803,9.600000000000001,26.279234807611672,0.0,54.7,0.0,-0.26,0.0,28.3,-4.2,-93.30000000000001,208,28,False,False,0.0,0.0,0.0,0.0,0.0,0.0,
275,39.354940623205984,22.6666802471241,9.600000000000001,25.998331695297264,0.0,54.9,0.0,-0.15,0.0,26.5,-7.5,-93.5,208,12,False,False,0.0,0.0,0.0,0.0,0.0,0.0,
276,39.354940663055466,22.66667854598206,9.700000000000001,25.875741632419345,0.0,55.1,0.0,-0.07,0.0,16.7,-8.700000000000001,-92.7,208,12,False,False,0.0,0.0,0.0,0.0,0.0,0.0,
277,39.354940447720885,22.666677481887934,9.700000000000001,25.814529642217153,0.0,55.3,0.0,-0.03,0.0,8.9,-7.9,-91.9,208,12,False,False,0.0,0.0,0.0,0.0,0.0,0.0,
278,-1.0449271433052069e-172,6.55648473772027e-167,9.700000000000001,4945816.569248754,0.0,55.5,0.0,-0.02,0.0,5.7,-7.0,-91.7,208,12,False,False,0.0,0.0,0.0,0.0,0.0,0.0,
279,39.35494057578401,22.6666758075333,9.700000000000001,25.688632755887824,0.0,55.7,0.0,-0.01,0.0,5.2,-6.2,-91.7,208,12,False,False,0.0,0.0,0.0,0.0,0.0,0.0,
280,39.354940398602864,22.666674891356482,9.700000000000001,25.635735009460262,0.0,55.9,-0.01,-0.01,0.0,5.0,-5.7,-91.60000000000001,208,12,False,False,0.0,0.0,0.0,0.0,0.0,0.0,
281,39.354940138193534,22.66667447992995,9.700000000000001,25.623692944992648,0.0,56.1,-0.01,-0.01,0.0,5.300000000000001,-5.1000000000000005,-96.5,208,12,False,False,0.0,0.0,0.0,0.0,0.0,0.0,
282,39.35494001792556,22.666674398371413,9.700000000000001,25.625747392938923,0.0,56.3,0.0,0.0,0.01,6.1000000000000005,-4.9,-108.2,208,28,False,False,0.0,0.0,0.0,0.0,0.0,0.0,
284,39.35494049505717,22.66667487101681,9.700000000000001,25.62810113258747,0.0,56.7,0.0,0.01,0.0,1.5,-3.9000000000000004,-120.60000000000001,208,28,False,False,0.0,0.0,0.0,0.0,0.0,0.0,
285,39.35494071501741,22.666675404194052,9.600000000000001,25.651376564852875,0.0,56.9,0.0,0.01,0.0,-1.0,-4.1000000000000005,-120.4,208,12,False,False,0.0,0.0,0.0,0.0,0.0,0.0,
286,39.35494117573633,22.666675716270216,9.600000000000001,25.64378205378432,0.0,57.1,0.0,0.01,0.0,-1.8,-3.8000000000000003,-120.0,144,28,False,False,0.0,0.0,0.0,0.0,0.0,0.0,
287,39.35494127505163,22.666675643086833,9.600000000000001,25.632282173291824,0.0,57.3,0.0,0.0,0.0,-0.9,-3.4000000000000004,-120.10000000000001,144,28,False,False,0.0,0.0,0.0,0.0,0.0,0.0,tT#M&Yaripod)-mode.
289,39.3549412252141,22.666675253506714,9.600000000000001,25.608080762126985,0.0,57.7,0.0,0.0,0.0,1.3,-3.5,-121.30000000000001,144,12,False,False,0.0,0.0,0.0,0.0,0.0,0.0,
290,39.3549413056669,22.666675209348554,9.600000000000001,25.599825044183476,0.0,57.9,0.0,0.0,0.0,0.6000000000000001,-4.3,-123.4,144,28,False,False,0.0,0.0,0.0,0.0,0.0,0.0,
291,39.35494125622338,22.666675285345825,9.600000000000001,25.608333033792054,0.0,58.1,0.0,0.0,0.0,-1.5,-6.1000000000000005,-123.4,144,28,False,False,0.0,0.0,0.0,0.0,0.0,0.0,
292,39.354941374641086,22.666675415228013,9.600000000000001,25.609886750440328,0.0,58.3,0.0,0.0,0.0,-1.5,-1.8,-123.4,144,28,False,False,0.0,0.0,0.0,0.0,0.0,0.0,
293,3.5223606550245983e-72,-3.6116834651388933e-168,9.600000000000001,4945816.569248754,0.0,58.5,0.0,0.0,0.0,-2.4000000000000004,1.1,-123.80000000000001,144,28,False,False,0.0,0.0,0.0,0.0,0.0,0.0,
294,39.35494180493332,22.666675170330652,9.600000000000001,25.565153243737218,0.0,58.7,0.02,-0.01,0.0,-2.3000000000000003,2.1,-123.9,144,28,False,False,0.0,0.0,0.0,0.0,0.0,0.0,
295,39.35494231824814,22.66667465246359,9.600000000000001,25.49592839099454,0.0,58.9,0.03,-0.02,0.0,-0.30000000000000004,3.6,-123.80000000000001,144,28,False,False,0.0,0.0,0.0,0.0,0.0,0.0,
296,39.35494347273551,22.666673783701768,9.5,25.361174385928066,0.0,59.1,0.05,-0.03,0.0,-0.2,4.4,-123.9,144,12,False,False,0.0,0.0,0.0,0.0,0.0,0.0,
297,39.35494462054119,22.66667282633567,9.5,25.220737613576723,0.0,59.3,0.07,-0.05,0.0,-0.30000000000000004,2.4000000000000004,-124.0,144,12,False,False,0.0,0.0,0.0,0.0,0.0,0.0,
299,39.354947839071876,22.666669727110094,9.5,24.79823606177633,0.0,59.7,0.09,-0.07,0.0,-2.1,-0.1,-124.60000000000001,144,28,False,False,0.0,0.0,0.0,0.0,0.0,0.0,
300,39.35494956131128,22.66666789670619,9.5,24.560273113853896,0.0,59.9,0.09,-0.08,0.0,-1.3,-1.5,-128.1,144,12,False,False,0.0,0.0,0.0,0.0,0.0,0.0,
301,39.35495120103349,22.666665514491328,9.5,24.28838045734847,0.0,60.1,0.09,-0.08,0.0,-0.5,-0.4,-130.8,144,28,False,False,0.0,0.0,0.0,0.0,0.0,0.0,
302,39.35495314416683,22.666663124211432,9.5,23.99707720005962,0.0,60.3,0.09,-0.09,0.0,-2.8000000000000003,-2.1,-132.20000000000002,144,28,False,False,0.0,0.0,0.0,0.0,0.0,0.0,
303,-4.478859249438594e-280,8.253864039273265e-255,9.5,4945816.569248754,0.0,60.5,0.09,-0.09,0.0,-3.1,-3.1,-135.6,144,28,False,False,0.0,0.0,0.0,0.0,0.0,0.0,
304,39.35495674234704,22.666658434626818,9.5,23.439283415183766,0.0,60.7,0.08,-0.1,0.0,-3.1,-3.1,-139.8,144,28,False,False,0.0,0.0,0.0,0.0,0.0,0.0,
305,39.354958377024076,22.666656298128633,9.5,23.185609467283165,0.0,60.9,0.07,-0.1,0.0,-1.5,-2.1,-144.1,144,12,False,False,0.0,0.0,0.0,0.0,0.0,0.0,
306,39.35495962511259,22.666653931623227,9.5,22.939332336633267,0.0,61.1,0.07,-0.1,0.0,-3.5,-2.0,-146.4,144,12,False,False,0.0,0.0,0.0,0.0,0.0,0.0,
307,39.35496102145483,22.666651238240593,9.5,22.660524529145054,0.0,61.3,0.06,-0.11,0.0,-3.5,-2.8000000000000003,-149.9,144,12,False,False,0.0,0.0,0.0,0.0,0.0,0.0,
309,39.3549628386408,22.666645866408924,9.4,22.16421520416681,0.0,61.7,0.05,-0.11,0.0,-1.9000000000000001,-4.9,-157.3,144,28,False,False,0.0,0.0,0.0,0.0,0.0,0.0,
310,39.35496352570165,22.66664337104021,9.5,21.943547876759766,0.0,61.9,0.04,-0.09,-0.05,-3.2,-6.9,-157.20000000000002,144,28,False,False,0.0,0.0,0.0,0.0,0.0,0.0,
311,39.35496399925254,22.666641175916034,9.700000000000001,21.75771796488314,0.0,62.1,0.02,-0.08,-0.08,-2.2,-4.9,-156.9,144,28,False,False,0.0,0.0,0.0,0.0,0.0,0.0,
312,39.35496397754604,22.6666394726248,9.8,21.63805447711917,0.0,62.3,0.02,-0.08,-0.03,-1.0,-10.200000000000001,-157.60000000000002,144,28,False,False,0.0,0.0,0.0,0.0,0.0,0.0,
314,39.35496393392741,22.66663720447249,9.8,21.48015370866172,0.0,62.7,0.0,-0.03,0.0,-1.4000000000000001,-5.800000000000001,-157.10000000000002,144,12,False,False,0.0,0.0,0.0,0.0,0.0,0.0,
315,39.35496410024673,22.666636505364224,9.8,21.42021136212614,0.0,62.9,0.0,-0.02,0.0,-2.9000000000000004,-4.800000000000001,-157.60000000000002,144,12,False,False,0.0,0.0,0.0,0.0,0.0,0.0,
316,39.354963902421275,22.6666359730954,9.8,21.395183745855142,0.0,63.1,0.0,-0.02,0.0,-3.9000000000000004,-4.3,-157.4,144,12,False,False,0.0,0.0,0.0,0.0,0.0,0.0,
317,39.35496382020384,22.66663545132882,9.8,21.363621584397126,0.0,63.3,-0.01,-0.02,0.0,-4.7,-4.1000000000000005,-156.8,144,12,False,False,0.0,0.0,0.0,0.0,0.0,0.0,
319,39.35496287656259,22.666634660558554,9.8,21.368356717089128,0.0,63.7,-0.03,-0.02,0.0,-4.4,-3.0,-157.10000000000002,144,12,False,False,0.0,0.0,0.0,0.0,0.0,0.0,
320,39.35496220474074,22.666634206502643,9.8,21.37979674415383,0.0,63.9,-0.03,-0.02,0.0,-4.9,-2.4000000000000004,-157.10000000000002,144,12,False,False,0.0,0.0,0.0,0.0,0.0,0.0,
321,39.35496136085171,22.666633442985006,9.9,21.38115766278519,0.0,64.1,-0.04,-0.03,0.0,-4.5,-2.5,-157.0,144,12,False,False,0.0,0.0,0.0,0.0,0.0,0.0,
322,39.35496068081499,22.66663270984412,9.9,21.374508464993195,0.0,64.3,-0.05,-0.03,0.0,-3.5,-3.3000000000000003,-157.0,144,12,False,False,0.0,0.0,0.0,0.0,0.0,0.0,
323,39.35495997663047,22.66663231233194,9.9,21.39315269852011,0.0,64.5,-0.04,-0.03,0.0,1.8,-4.800000000000001,-157.9,144,12,False,False,0.0,0.0,0.0,0.0,0.0,0.0,
324,39.354958977857954,22.66663202693238,9.9,21.439371869915405,0.0,64.7,-0.03,-0.02,0.0,4.2,-6.0,-158.60000000000002,144,12,False,False,0.0,0.0,0.0,0.0,0.0,0.0,
325,39.35495866497278,22.66663166263304,9.9,21.434999746075654,0.0,64.9,-0.01,-0.01,0.0,2.2,-6.2,-158.70000000000002,144,12,False,False,0.0,0.0,0.0,0.0,0.0,0.0,
326,39.35495866022719,22.666631511170316,9.9,21.42487537578508,0.0,65.1,0.0,0.0,0.0,-1.6,-5.800000000000001,-158.4,144,12,False,False,0.0,0.0,0.0,0.0,0.0,0.0,
327,39.35495854204932,22.666631989930867,10.0,21.465731874230165,0.0,65.3,0.0,0.0,0.0,-4.0,-6.300000000000001,-157.4,144,12,False,False,0.0,0.0,0.0,0.0,0.0,0.0,
329,39.35495770948465,22.666632280648052,10.0,21.541164452812758,0.0,65.7,-0.01,0.0,0.0,-4.7,-5.7,-156.60000000000002,144,12,False,False,0.0,0.0,0.0,0.0,0.0,0.0,
330,39.35495744910949,22.66663233821095,10.100000000000001,21.562494887573873,0.0,65.9,-0.02,-0.01,0.0,-3.1,-6.800000000000001,-156.4,144,12,False,False,0.0,0.0,0.0,0.0,0.0,0.0,
331,39.35495692595233,22.66663246780521,10.100000000000001,21.606366916029916,0.0,66.1,-0.02,0.0,0.0,-0.5,-5.7,-157.5,144,12,False,False,0.0,0.0,0.0,0.0,0.0,0.0,
332,39.35495654921543,22.666633055908775,10.100000000000001,21.671960857148644,0.0,66.3,-0.02,0.01,0.0,0.0,-2.2,-158.20000000000002,144,12,False,False,0.0,0.0,0.0,0.0,0.0,0.0,
333,39.35495632285634,22.666633652298927,10.100000000000001,21.728061359790406,0.0,66.5,-0.01,0.01,0.0,0.4,0.8,-160.4,144,12,False,False,0.0,0.0,0.0,0.0,0.0,0.0,
334,39.35495601190708,22.666633932092854,10.100000000000001,21.768081698171926,0.0,66.7,0.0,0.0,0.0,-0.5,0.2,-162.8,144,12,False,False,0.0,0.0,0.0,0.0,0.0,0.0,
335,39.35495593112024,22.666634380941947,10.100000000000001,21.804310235874993,0.0,66.9,0.0,0.0,0.0,-2.0,-0.2,-163.20000000000002,144,12,False,False,0.0,0.0,0.0,0.0,0.0,0.0,
336,39.354955924104594,22.66663459876384,10.100000000000001,21.819744295596305,0.0,67.1,0.0,0.01,0.0,-1.1,-2.7,-162.8,144,12,False,False,0.0,0.0,0.0,0.0,0.0,0.0,
337,39.35495574128696,22.666635226638572,10.100000000000001,21.875113540371537,0.0,67.3,0.0,0.01,0.0,-1.6,-0.1,-161.60000000000002,144,12,False,False,0.0,0.0,0.0,0.0,0.0,0.0,
339,39.354955348557176,22.66663593066552,10.0,21.94974002872839,0.0,67.7,0.0,0.0,0.0,-1.2000000000000002,1.2000000000000002,-162.70000000000002,144,12,False,False,0.0,0.0,0.0,0.0,0.0,0.0,
340,39.354955525327156,22.66663570841232,10.100000000000001,21.922657334021576,0.0,67.9,0.0,-0.01,0.0,-1.8,-5.1000000000000005,-163.20000000000002,144,12,False,False,0.0,0.0,0.0,0.0,0.0,0.0,
341,39.35495549149964,22.66663567367076,10.0,21.922526602890937,0.0,68.1,0.0,0.0,0.0,-3.8000000000000003,-1.3,-163.20000000000002,144,12,False,False,0.0,0.0,0.0,0.0,0.0,0.0,
342,39.35495551463665,22.66663577217914,10.0,21.927756066852602,0.0,68.3,0.0,0.0,0.0,-3.9000000000000004,-0.4,-162.9,144,12,False,False,0.0,0.0,0.0,0.0,0.0,0.0,
343,39.354955468816584,22.66663572930603,10.0,21.927866300627837,0.0,68.5,0.0,0.0,0.0,-2.2,-1.6,-162.9,144,12,False,False,0.0,0.0,0.0,0.0,0.0,0.0,
344,39.35495527370661,22.66663556895846,10.0,21.92988187974271,0.0,68.7,0.0,-0.01,0.0,-1.5,-3.6,-162.9,144,12,False,False,0.0,0.0,0.0,0.0,0.0,0.0,
345,39.354955311174734,22.66663530239196,10.0,21.9090665935823,0.0,68.9,0.0,0.0,0.0,-2.9000000000000004,-4.3,-163.10000000000002,144,12,False,False,0.0,0.0,0.0,0.0,0.0,0.0,
346,39.3549552682757,22.666635120087207,10.0,21.899421465941327,0.0,69.1,0.0,0.0,0.0,-4.2,-4.4,-163.20000000000002,144,12,False,False,0.0,0.0,0.0,0.0,0.0,0.0,
347,39.35495506481376,22.666634909222523,10.0,21.898590593203828,0.0,69.3,0.0,0.0,0.0,-4.7,-4.5,-163.20000000000002,144,12,False,False,0.0,0.0,0.0,0.0,0.0,0.0,
348,7.992245860536471e-31,-1.3813575686559293e-21,10.0,4945816.569248754,0.0,69.5,-0.01,0.0,0.0,-4.800000000000001,-4.3,-163.20000000000002,144,12,False,False,0.0,0.0,0.0,0.0,0.0,0.0,
349,39.35495467582728,22.666634635122822,10.0,21.905941560172703,0.0,69.7,-0.01,0.0,0.0,-3.3000000000000003,-3.9000000000000004,-163.3,144,12,False,False,0.0,0.0,0.0,0.0,0.0,0.0,
350,39.35495441691702,22.666634621252786,10.0,21.922423144095504,0.0,69.9,-0.01,0.0,0.0,-1.1,-3.0,-163.10000000000002,144,12,False,False,0.0,0.0,0.0,0.0,0.0,0.0,
351,39.35495419037803,22.66663457392621,10.0,21.934459654564588,0.0,70.1,-0.01,0.0,0.0,-1.3,-2.4000000000000004,-163.0,144,12,False,False,0.0,0.0,0.0,0.0,0.0,0.0,
352,39.35495378709478,22.66663427334929,10.0,21.941182092961007,0.0,70.3,-0.01,0.0,0.0,-1.1,-2.7,-163.10000000000002,144,12,False,False,0.0,0.0,0.0,0.0,0.0,0.0,
353,39.35495357601761,22.66663414880685,10.0,21.946982746715268,0.0,70.5,0.0,0.0,0.0,-0.5,-3.3000000000000003,-163.3,144,12,False,False,0.0,0.0,0.0,0.0,0.0,0.0,
354,39.354953398236866,22.666633967654235,10.0,21.946696873557116,0.0,70.7,0.0,0.0,0.0,-1.2000000000000002,-3.5,-163.20000000000002,144,12,False,False,0.0,0.0,0.0,0.0,0.0,0.0,
355,39.354953414075574,22.666634079013495,10.0,21.95320727203033,0.0,70.9,0.0,0.0,0.0,-2.5,-2.5,-163.10000000000002,144,12,False,False,0.0,0.0,0.0,0.0,0.0,0.0,
356,39.354953308909614,22.666634367559332,9.9,21.97999922859757,0.0,71.1,0.0,0.0,0.0,-1.8,-2.9000000000000004,-163.20000000000002,144,12,False,False,0.0,0.0,0.0,0.0,0.0,0.0,
357,39.354953044902516,22.66663441018868,9.9,22.000818302001953,0.0,71.3,0.0,0.0,0.0,-2.3000000000000003,-2.0,-163.0,144,12,False,False,0.0,0.0,0.0,0.0,0.0,0.0,
359,39.35495284940708,22.666633916073547,10.0,21.9804925315866,0.0,71.7,0.0,0.0,0.0,-1.2000000000000002,-5.0,-163.20000000000002,144,12,False,False,0.0,0.0,0.0,0.0,0.0,0.0,
360,39.354952673031164,22.666633688081777,10.0,21.977016823985313,0.0,71.9,0.0,0.0,0.0,-2.3000000000000003,-5.800000000000001,-163.3,144,12,False,False,0.0,0.0,0.0,0.0,0.0,0.0,
361,39.354952731229226,22.666633358856355,10.0,21.950691829036074,0.0,72.1,0.0,0.0,0.0,-2.3000000000000003,-5.9,-163.4,144,12,False,False,0.0,0.0,0.0,0.0,0.0,0.0,
362,39.35495272532723,22.666633250599045,10.0,21.943746041608648,0.0,72.3,0.0,0.0,0.0,-3.4000000000000004,-6.300000000000001,-163.4,144,12,False,False,0.0,0.0,0.0,0.0,0.0,0.0,
363,39.35495259576499,22.666633285606565,10.0,21.954967930010394,0.0,72.5,0.0,0.0,0.0,-3.7,-5.2,-163.3,144,12,False,False,0.0,0.0,0.0,0.0,0.0,0.0,
364,39.354952538157974,22.666633334284715,10.0,21.962205269404723,0.0,72.7,0.0,0.0,0.0,-4.1000000000000005,-4.1000000000000005,-163.5,144,12,False,False,0.0,0.0,0.0,0.0,0.0,0.0,
365,39.35495256854189,22.666633487896657,10.0,21.970554179615114,0.0,72.9,0.0,0.0,0.0,-4.6000000000000005,-4.1000000000000005,-163.3,144,12,False,False,0.0,0.0,0.0,0.0,0.0,0.0,
366,39.35495224899222,22.666633515858326,10.0,21.994281623663866,0.0,73.1,0.0,0.0,0.0,-3.8000000000000003,-2.5,-163.20000000000002,144,12,False,False,0.0,0.0,0.0,0.0,0.0,0.0,
367,39.35495201702233,22.66663365420432,10.100000000000001,22.019525917008025,0.0,73.3,0.0,0.0,0.0,-3.6,-2.4000000000000004,-163.20000000000002,144,12,False,False,0.0,0.0,0.0,0.0,0.0,0.0,
369,39.35495134072047,22.66663312867111,10.100000000000001,22.030353581875538,0.0,73.7,0.0,0.0,0.0,1.9000000000000001,-5.7,-163.60000000000002,144,12,False,False,0.0,0.0,0.0,0.0,0.0,0.0,
370,39.35495144078966,22.66663319077619,10.0,22.027671526860097,0.0,73.9,0.01,0.0,0.0,2.8000000000000003,-4.800000000000001,-163.5,144,12,False,False,0.0,0.0,0.0,0.0,0.0,0.0,
371,39.3549520818764,22.666633580444937,10.0,22.01008952747526,0.0,74.1,0.03,0.01,0.0,2.9000000000000004,-4.7,-163.4,144,12,False,False,0.0,0.0,0.0,0.0,0.0,0.0,
372,39.3549529493051,22.66663389927893,10.0,21.97255165661825,0.0,74.3,0.05,0.02,0.0,2.9000000000000004,-5.1000000000000005,-163.5,144,28,False,False,0.0,0.0,0.0,0.0,0.0,0.0,
373,39.35495397317641,22.66663462005643,10.0,21.952271786632714,0.0,74.5,0.07,0.02,0.0,1.7000000000000002,-3.3000000000000003,-163.3,144,28,False,False,0.0,0.0,0.0,0.0,0.0,0.0,
374,39.35495521602316,22.666635127155438,10.0,21.903405946872784,0.0,74.7,0.08,0.02,0.0,1.7000000000000002,-4.2,-163.20000000000002,144,28,False,False,0.0,0.0,0.0,0.0,0.0,0.0,
375,39.354956444735194,22.666635585576095,10.0,21.85297434249147,0.0,74.9,0.09,0.03,0.0,2.4000000000000004,-4.800000000000001,-163.3,144,12,False,False,0.0,0.0,0.0,0.0,0.0,0.0,
376,39.35495792237832,22.666636009255274,10.0,21.78455444139283,0.0,75.1,0.1,0.03,0.0,3.5,-5.4,-163.5,144,12,False,False,0.0,0.0,0.0,0.0,0.0,0.0,
377,39.35495958779885,22.666636534611253,10.0,21.712080084832742,0.0,75.3,0.11,0.04,0.0,3.3000000000000003,-4.6000000000000005,-163.60000000000002,144,12,False,False,0.0,0.0,0.0,0.0,0.0,0.0,
379,39.354964422777954,22.666638745289486,10.0,21.558487524298265,0.0,75.7,0.14,0.05,0.0,1.8,-3.8000000000000003,-163.4,144,12,False,False,0.0,0.0,0.0,0.0,0.0,0.0,
380,39.3549670547197,22.666640130256386,10.0,21.49379079417447,0.0,75.9,0.15,0.05,0.0,1.0,-3.6,-163.20000000000002,144,12,False,False,0.0,0.0,0.0,0.0,0.0,0.0,
381,39.354969366889065,22.666641077053686,10.0,21.421137004722368,0.0,76.1,0.15,0.05,0.0,1.1,-3.8000000000000003,-163.20000000000002,144,12,False,False,0.0,0.0,0.0,0.0,0.0,0.0,
382,39.3549717847812,22.666642052721084,10.0,21.34749069986323,0.0,76.3,0.16,0.05,0.0,1.7000000000000002,-4.0,-163.10000000000002,144,12,False,False,0.0,0.0,0.0,0.0,0.0,0.0,
383,39.35497463485861,22.666643191439157,10.0,21.26430945397517,0.0,76.5,0.17,0.06,0.0,1.4000000000000001,-4.2,-163.20000000000002,144,28,False,False,0.0,0.0,0.0,0.0,0.0,0.0,
384,39.35497760885315,22.666644384950583,10.0,21.183093520810434,0.0,76.7,0.18,0.06,0.0,0.6000000000000001,-3.8000000000000003,-163.0,144,28,False,False,0.0,0.0,0.0,0.0,0.0,0.0,
385,39.35498075864969,22.66664555723595,10.0,21.096055700635727,0.0,76.9,0.18,0.06,0.0,-1.8,-3.6,-163.10000000000002,144,28,False,False,0.0,0.0,0.0,0.0,0.0,0.0,
386,39.35498399699386,22.6666470944632,10.0,21.037900227546405,0.0,77.1,0.16,0.05,0.0,-20.400000000000002,-3.7,-162.60000000000002,208,28,False,False,0.0,0.0,0.0,0.0,0.0,0.0,
387,39.35498635324405,22.66664809660768,10.0,20.991023709169,0.0,77.3,0.09,0.03,0.0,-20.900000000000002,-3.7,-162.60000000000002,208,28,False,False,0.0,0.0,0.0,0.0,0.0,0.0,(BJǹ/l`al (N) mode
388,1.47658137453115e-136,2.631005483638612e-306,10.0,4945816.569248754,0.0,77.5,0.04,0.01,0.0,-13.600000000000001,-3.5,-163.0,208,28,False,False,0.0,0.0,0.0,0.0,0.0,0.0,
389,39.35498770165873,22.666649147253047,10.0,21.002281453038286,0.0,77.7,0.01,0.01,0.0,-2.5,-3.4000000000000004,-163.3,208,28,False,False,0.0,0.0,0.0,0.0,0.0,0.0,
390,39.35498843499381,22.66665000797187,10.0,21.03120441362289,0.0,77.9,0.04,0.02,0.0,15.3,-3.1,-163.8,208,28,False,False,0.0,0.0,0.0,0.0,0.0,0.0,
391,39.35499023458579,22.66665083512363,10.0,21.005322682407225,0.0,78.1,0.11,0.04,0.0,20.6,-2.3000000000000003,-162.10000000000002,208,28,False,False,0.0,0.0,0.0,0.0,0.0,0.0,
392,39.354993601044434,22.666652486523947,10.0,20.970694275253365,0.0,78.3,0.19,0.07,0.0,20.400000000000002,-2.7,-161.8,208,28,False,False,0.0,0.0,0.0,0.0,0.0,0.0,
393,39.354997915504846,22.66665454651496,10.0,20.932985465626825,0.0,78.5,0.26,0.09,0.0,19.3,-2.8000000000000003,-161.20000000000002,208,28,False,False,0.0,0.0,0.0,0.0,0.0,0.0,
394,39.35500327731614,22.666657003021083,10.0,20.895218789854614,0.0,78.7,0.32,0.11,0.0,17.900000000000002,-3.2,-160.8,208,12,False,False,0.0,0.0,0.0,0.0,0.0,0.0,
