index,latitude,longitude,height,home_distance,vps_altitude,time_seconds,rc_throttle,rc_yaw,rc_pitch,rc_roll,speed_x,speed_y,speed_z,pitch,roll,yaw,satellite_count,flight_mode,is_motor_on,is_flying,battery_percent,battery_voltage,cell_1,cell_2,cell_3,cell_4,message
2,38.1322288799182,24.329605041404093,0.0,0.0,0.0,0.3,0,0,0,0,0.0,0.0,0.0,4.5,1.3,130.5,208,26,False,True,0.0,0.0,0.0,0.0,0.0,0.0,
3,38.132228894633364,24.32960491470774,0.0,0.011201593119250924,0.0,0.5,0,0,0,0,0.0,0.0,0.0,4.5,1.3,130.5,208,26,False,True,0.0,0.0,0.0,0.0,0.0,0.0,
4,38.13222874078595,24.329604792540085,0.0,0.02670465481976082,0.0,0.7,0,0,0,0,0.0,0.0,0.0,4.5,1.3,130.4,208,26,False,True,0.0,0.0,0.0,0.0,0.0,0.0,
5,38.13222876514226,24.329604670582416,0.0,0.03485441541000251,0.0,0.9,0,0,0,0,0.0,0.0,0.0,4.4,1.3,130.5,208,26,False,True,0.0,0.0,0.0,0.0,0.0,0.0,
7,38.13222880512852,24.329604598214924,0.0,0.039645393126772385,0.0,1.3,0,0,0,0,0.0,0.0,0.0,4.5,1.3,130.4,208,26,False,True,0.0,0.0,0.0,0.0,0.0,0.0,
8,38.13222899479964,24.329604471778225,0.0,0.05143365718157456,0.0,1.5,0,0,0,0,0.0,0.0,0.0,4.5,1.3,130.4,208,26,False,True,0.0,0.0,0.0,0.0,0.0,0.0,
9,38.13222899842585,24.329604525062308,0.0,0.047044835984004774,0.0,1.7,0,0,0,0,0.0,0.0,0.0,4.3,1.4000000000000001,130.4,208,26,False,False,0.0,0.0,0.0,0.0,0.0,0.0,
10,38.13222899357112,24.329604575998832,0.0,0.04262307567831475,0.0,1.9,0,0,0,0,0.0,0.0,0.0,4.0,1.4000000000000001,130.4,208,26,False,False,0.0,0.0,0.0,0.0,0.0,0.0,
11,38.1322288323949,24.32960464115313,0.0,0.03540436463257559,0.0,2.1,0,0,0,0,0.0,0.0,-0.01,-1.6,1.7000000000000002,129.20000000000002,208,26,False,False,0.0,0.0,0.0,0.0,0.0,0.0,
12,38.132228827944374,24.329604893276144,0.0,0.014186473908456999,0.0,2.3,0,0,0,0,0.0,0.01,-0.05,-1.5,1.0,129.9,208,28,False,False,0.0,0.0,0.0,0.0,0.0,0.0,
13,38.13222881833023,24.329605367345213,0.2,0.029319311715874083,0.0,2.5,0,0,0,0,0.0,0.02,-0.11,-1.1,1.1,130.3,208,28,False,False,0.0,0.0,0.0,0.0,0.0,0.0,
14,38.13222870542741,24.329606193914838,0.5,0.1026541534418997,0.0,2.7,0,0,0,0,0.0,0.03,-0.18,-5.7,3.6,130.1,208,28,False,False,0.0,0.0,0.0,0.0,0.0,0.0,\ f:=ded. Return-to-Home Altitude:70.0 m
15,38.132228486591515,24.329607542438175,1.0,0.22308119071731944,0.0,2.9,0,0,0,0,-0.01,0.05,-0.26,-8.3,5.9,129.9,208,28,False,False,0.0,0.0,0.0,0.0,0.0,0.0,
16,3.674749837051007e-231,1.8837199170408695e-16,1.8,4916453.561634849,0.0,3.1,0,0,0,0,-0.04,0.08,-0.34,-8.6,6.9,130.20000000000002,208,28,False,False,0.0,0.0,0.0,0.0,0.0,0.0,
17,38.132226458970365,24.329611519422908,3.0,0.6272953358309374,0.0,3.3,0,0,0,0,-0.07,0.1,-0.42,-8.700000000000001,6.2,129.70000000000002,208,28,False,False,0.0,0.0,0.0,0.0,0.0,0.0,
18,38.13222458279742,24.329614339683644,4.4,0.9432488031042539,0.0,3.5,0,0,0,0,-0.09,0.11,-0.44,-9.5,6.7,131.0,208,28,False,False,0.0,0.0,0.0,0.0,0.0,0.0,
19,38.13222263073936,24.329616576386247,5.7,1.2250461083830364,0.0,3.7,0,0,0,0,-0.11,0.12,-0.39,-14.4,3.8000000000000003,131.5,208,28,False,False,0.0,0.0,0.0,0.0,0.0,0.0,
20,38.13222054812333,24.329619335924868,6.5,1.556109392049109,0.0,3.9,0,0,0,0,-0.13,0.14,-0.33,-26.6,0.8,131.3,208,28,False,False,0.0,0.0,0.0,0.0,0.0,0.0,
21,38.13221764018733,24.329623429005956,7.4,2.0367904699049726,0.0,4.1,0,0,0,0,-0.18,0.22,-0.35000000000000003,-23.0,-1.8,131.0,208,28,False,False,0.0,0.0,0.0,0.0,0.0,0.0,
22,38.132214048304824,24.329629569888198,8.4,2.7060098350834507,0.0,4.3,0,0,0,0,-0.2,0.31,-0.44,-15.600000000000001,-1.3,127.9,208,28,False,False,0.0,0.0,0.0,0.0,0.0,0.0,
23,38.13220953665247,24.329637725122197,9.600000000000001,3.5774623299598303,0.0,4.5,0,0,0,0,-0.22,0.35000000000000003,-0.53,-9.9,1.5,127.60000000000001,208,28,False,False,0.0,0.0,0.0,0.0,0.0,0.0,
24,38.13220506362497,24.329645681247623,10.8,4.432610857806127,0.0,4.7,0,0,0,0,-0.22,0.36,-0.59,-9.5,2.5,126.5,208,28,False,False,0.0,0.0,0.0,0.0,0.0,0.0,
25,38.13220081339327,24.329654005093236,12.0,5.299085398658671,0.0,4.9,0,0,0,0,-0.22,0.37,-0.61,-2.7,3.5,124.80000000000001,208,28,False,False,0.0,0.0,0.0,0.0,0.0,0.0,
27,38.13219358396298,24.329669442864787,14.0,6.865310476307292,0.0,5.3,0,0,0,0,-0.18,0.28,-0.55,7.0,26.900000000000002,124.30000000000001,208,28,False,False,0.0,0.0,0.0,0.0,0.0,0.0,
28,38.1321901266324,24.329674711967623,14.700000000000001,7.463391339409606,0.0,5.5,0,0,0,0,-0.19,0.22,-0.45,1.7000000000000002,29.900000000000002,133.20000000000002,208,28,False,False,0.0,0.0,0.0,0.0,0.0,0.0,
29,38.132186215359845,24.329679147832,15.200000000000001,8.032347810656221,0.0,5.7,0,0,0,0,-0.21,0.17,-0.35000000000000003,1.1,29.1,144.4,208,12,False,False,0.0,0.0,0.0,0.0,0.0,0.0,
30,38.13218235331942,24.329682630115634,15.4,8.533389162182889,0.0,5.9,0,0,0,0,-0.2,0.11,-0.26,17.6,22.700000000000003,159.3,208,12,False,False,0.0,0.0,0.0,0.0,0.0,0.0,
32,38.13217642087902,24.329686420600222,15.3,9.202665071160743,0.0,6.3,0,0,0,0,-0.12,0.03,-0.04,16.400000000000002,25.3,-176.8,208,12,False,False,0.0,0.0,0.0,0.0,0.0,0.0,
33,38.13217452437601,24.32968629668334,15.200000000000001,9.32949962020226,0.0,6.5,0,0,0,0,-0.05,-0.02,-0.01,14.100000000000001,25.1,-165.0,208,12,False,False,0.0,0.0,0.0,0.0,0.0,0.0,
34,38.132174487661274,24.32968499504447,15.200000000000001,9.245738132789898,0.0,6.7,0,0,0,0,0.01,-0.07,0.0,9.1,12.700000000000001,-155.3,208,12,False,False,0.0,0.0,0.0,0.0,0.0,0.0,
35,38.132175711258554,24.329683009166676,15.100000000000001,9.02536624811518,0.0,6.9,0,0,0,0,0.06,-0.08,0.0,5.4,0.2,-142.1,208,12,False,False,0.0,0.0,0.0,0.0,0.0,0.0,
36,38.13217741472549,24.32968128705446,15.100000000000001,8.787591762408837,0.0,7.1,0,0,0,0,0.08,-0.06,0.0,3.4000000000000004,-7.2,-129.6,208,12,False,False,0.0,0.0,0.0,0.0,0.0,0.0,
37,38.13217908572178,24.329680250458633,15.100000000000001,8.598176421354674,0.0,7.3,0,0,0,0,0.08,-0.04,0.0,3.2,-10.9,-117.4,208,12,False,False,0.0,0.0,0.0,0.0,0.0,0.0,
38,38.13218086498283,24.3296794975472,15.200000000000001,8.42109593004684,0.0,7.5,0,0,0,0,0.07,-0.02,0.0,5.1000000000000005,-11.600000000000001,-105.7,208,12,False,False,0.0,0.0,0.0,0.0,0.0,0.0,
39,38.132182615975054,24.32967923692334,15.200000000000001,8.281144588559217,0.0,7.7,0,0,0,0,0.07,0.0,0.0,5.6000000000000005,-14.5,-93.2,208,12,False,False,0.0,0.0,0.0,0.0,0.0,0.0,
40,38.13218432597794,24.32967929816291,15.3,8.168643660521182,0.0,7.9,0,0,0,0,0.05,0.0,0.0,6.300000000000001,-16.400000000000002,-80.5,208,12,False,False,0.0,0.0,0.0,0.0,0.0,0.0,
41,38.13218543390896,24.32967952166959,15.4,8.110213365011482,0.0,8.1,0,0,0,0,0.03,0.01,0.0,7.1000000000000005,-15.700000000000001,-68.2,208,12,False,False,0.0,0.0,0.0,0.0,0.0,0.0,
42,38.13218599556489,24.32967975418811,15.4,8.089587246765813,0.0,8.3,0,0,0,0,0.01,0.0,0.0,7.5,-13.4,-56.2,208,12,False,False,0.0,0.0,0.0,0.0,0.0,0.0,
43,38.13218605620328,24.329680130277627,15.5,8.112222706235865,0.0,8.5,0,0,0,0,0.0,0.0,0.0,7.300000000000001,-10.3,-45.300000000000004,208,12,False,False,0.0,0.0,0.0,0.0,0.0,0.0,
44,38.132185873728886,24.329680152464086,15.5,8.125718264062733,0.0,8.7,0,0,0,0,-0.01,-0.01,0.0,7.4,-7.800000000000001,-44.800000000000004,208,12,False,False,0.0,0.0,0.0,0.0,0.0,0.0,
45,38.132185935553814,24.32968009296158,15.4,8.117465187442788,0.0,8.9,0,0,0,0,-0.01,-0.01,0.09,6.2,-3.8000000000000003,-44.900000000000006,208,12,False,False,0.0,0.0,0.0,0.0,0.0,0.0,
46,38.132186178416134,24.3296801912231,15.100000000000001,8.108573773410127,0.0,9.1,0,0,0,0,0.0,-0.01,0.15,2.2,-0.30000000000000004,-45.1,208,12,False,False,0.0,0.0,0.0,0.0,0.0,0.0,
47,38.13218645614103,24.329680309013824,14.700000000000001,8.098901204351595,0.0,9.3,0,0,0,0,0.01,0.0,0.25,6.4,-1.0,-45.900000000000006,208,12,False,False,0.0,0.0,0.0,0.0,0.0,0.0,
48,38.13218666409575,24.329680553541834,14.200000000000001,8.102877909014367,0.0,9.5,0,0,0,0,0.0,0.01,0.28,13.0,-2.3000000000000003,-46.400000000000006,208,12,False,False,0.0,0.0,0.0,0.0,0.0,0.0,
49,38.13218654743807,24.32968158388136,13.600000000000001,8.183953833831334,0.0,9.7,0,0,0,0,-0.01,0.03,0.28,17.2,-3.5,-45.5,208,12,False,False,0.0,0.0,0.0,0.0,0.0,0.0,
50,38.132185979100285,24.32968301628958,13.100000000000001,8.32281478090699,0.0,9.9,0,0,0,0,-0.04,0.07,0.27,19.900000000000002,-3.4000000000000004,-45.400000000000006,208,12,False,False,0.0,0.0,0.0,0.0,0.0,0.0,
51,38.13218503167529,24.32968540802051,12.5,8.55468305956291,0.0,10.1,0,0,0,0,-0.07,0.1,0.27,23.3,-4.5,-46.7,208,12,False,False,0.0,0.0,0.0,0.0,0.0,0.0,
52,38.1321834448144,24.32968882929918,12.0,8.901168129778954,0.0,10.3,0,0,0,0,-0.11,0.15,0.27,27.5,-5.0,-48.6,208,12,False,False,0.0,0.0,0.0,0.0,0.0,0.0,
53,38.13218074439435,24.3296936475946,11.8,9.418571899294736,0.0,10.5,0,0,0,0,-0.16,0.21,0.22,25.6,-5.1000000000000005,-48.800000000000004,208,12,False,False,0.0,0.0,0.0,0.0,0.0,0.0,
54,38.13217713589197,24.32969947298648,12.100000000000001,10.06592231262187,0.0,10.7,0,0,0,0,-0.23,0.28,0.13,24.6,-7.2,-49.6,208,12,False,False,0.0,0.0,0.0,0.0,0.0,0.0,
55,38.132172416901575,24.32970667633155,11.5,10.883051146725377,0.0,10.9,0,0,0,0,-0.26,0.33,0.04,12.4,11.8,-47.6,208,12,False,False,0.0,0.0,0.0,0.0,0.0,0.0,
57,38.13216498652893,24.329724530633452,11.4,12.63727389111799,0.0,11.3,0,0,0,0,-0.17,0.38,0.02,-9.3,-1.9000000000000001,-62.7,208,12,False,False,0.0,0.0,0.0,0.0,0.0,0.0,
58,38.132162815627225,24.32973191543294,11.4,13.308157767058255,0.0,11.5,0,0,0,0,-0.12,0.3,0.02,-27.900000000000002,-5.9,-60.900000000000006,208,12,False,False,0.0,0.0,0.0,0.0,0.0,0.0,
59,38.132160747524665,24.329737276391338,11.3,13.826245069129754,0.0,11.7,0,0,0,0,-0.07,0.2,0.02,-29.3,-5.6000000000000005,-61.0,208,12,False,False,0.0,0.0,0.0,0.0,0.0,0.0,
60,38.13215999578772,24.32974051717122,11.3,14.109419196563596,0.0,11.9,0,0,0,0,-0.03,0.1,0.03,-26.3,-4.1000000000000005,-60.800000000000004,208,12,False,False,0.0,0.0,0.0,0.0,0.0,0.0,
61,38.1321600926424,24.32974154957115,11.200000000000001,14.179525736159974,0.0,12.1,0,0,0,0,0.01,0.01,0.01,-15.8,-7.5,-61.2,208,12,False,False,0.0,0.0,0.0,0.0,0.0,0.0,
62,38.13216111084637,24.329741123646762,11.200000000000001,14.087284790983633,0.0,12.3,0,0,0,0,0.03,-0.04,0.0,-13.100000000000001,-4.6000000000000005,-62.7,208,12,False,False,0.0,0.0,0.0,0.0,0.0,0.0,
63,38.13216234658624,24.329740091518698,11.100000000000001,13.937673993682166,0.0,12.5,0,0,0,0,0.07,-0.07,0.07,-7.7,-6.0,-65.9,208,12,False,False,0.0,0.0,0.0,0.0,0.0,0.0,
64,38.13216411153744,24.329738341483505,11.0,13.704043039359988,0.0,12.7,0,0,0,0,0.09,-0.09,0.1,-8.5,7.4,-73.4,208,12,False,False,0.0,0.0,0.0,0.0,0.0,0.0,
65,38.13216688793382,24.32973651113151,10.9,13.406787286409324,0.0,12.9,0,0,0,0,0.18,-0.1,0.03,-6.0,10.8,-72.8,208,12,False,False,0.0,0.0,0.0,0.0,0.0,0.0,
66,38.13217123826692,24.329734136977336,10.8,12.983623657641656,0.0,13.1,0,0,0,0,0.25,-0.1,0.0,-2.3000000000000003,7.5,-72.8,208,12,False,False,0.0,0.0,0.0,0.0,0.0,0.0,
67,38.13217675413886,24.329731815718183,10.8,12.511780922094033,0.0,13.3,0,0,0,0,0.3,-0.1,0.0,-4.6000000000000005,11.700000000000001,-73.3,208,28,False,False,0.0,0.0,0.0,0.0,0.0,0.0,
68,38.13218308775113,24.32972950581772,10.8,12.01819520691149,0.0,13.5,0,0,0,0,0.37,-0.1,0.0,-6.1000000000000005,15.0,-73.4,208,28,False,False,0.0,0.0,0.0,0.0,0.0,0.0,
69,38.1321907131096,24.329727440488725,10.8,11.516107997771245,0.0,13.7,0,0,0,0,0.44,-0.1,0.0,-6.9,16.7,-73.5,208,28,False,False,0.0,0.0,0.0,0.0,0.0,0.0,
70,38.13219977392411,24.32972502502201,10.8,10.982042175334639,0.0,13.9,0,0,0,0,0.52,-0.1,0.0,-6.800000000000001,17.1,-73.5,208,28,False,False,0.0,0.0,0.0,0.0,0.0,0.0,
71,-5.849298438218896e-113,-4.513654367444493e-203,10.8,4916453.561634849,0.0,14.1,0,0,0,0,0.59,-0.11,0.0,-12.5,19.8,-74.9,208,12,False,False,0.0,0.0,0.0,0.0,0.0,0.0,
72,38.1322214694296,24.329719808540467,10.700000000000001,10.071823259411385,0.0,14.3,0,0,0,0,0.63,-0.14,0.06,-27.0,-4.1000000000000005,-75.9,208,12,False,False,0.0,0.0,0.0,0.0,0.0,0.0,
73,38.13223352454006,24.329715991389985,10.4,9.717926255730925,0.0,14.5,0,0,0,0,0.63,-0.19,0.16,-27.400000000000002,-10.0,-85.7,208,12,False,False,0.0,0.0,0.0,0.0,0.0,0.0,
74,38.132244395799106,24.329710682960485,10.0,9.399586942557608,0.0,14.7,0,0,0,0,0.6,-0.25,0.19,-15.100000000000001,1.8,-94.7,208,12,False,False,0.0,0.0,0.0,0.0,0.0,0.0,
75,38.13225552604181,24.32970450227959,9.700000000000001,9.19003294112909,0.0,14.9,0,0,0,0,0.62,-0.31,0.1,-16.3,2.1,-93.4,208,12,False,False,0.0,0.0,0.0,0.0,0.0,0.0,
77,38.13227826283134,24.329687696307257,9.600000000000001,9.078344729274914,0.0,15.3,0,0,0,0,0.61,-0.38,0.0,1.3,-6.4,-94.2,208,28,False,False,0.0,0.0,0.0,0.0,0.0,0.0,
78,38.13228900064876,24.32967952302144,9.600000000000001,9.334320878329816,0.0,15.5,0,0,0,0,0.56,-0.34,0.0,14.4,-22.6,-95.9,208,28,False,False,0.0,0.0,0.0,0.0,0.0,0.0,
79,38.13229843731416,24.32967309869002,9.600000000000001,9.75985818160153,0.0,15.7,0,0,0,0,0.48,-0.27,0.0,16.3,-24.700000000000003,-94.7,208,28,False,False,0.0,0.0,0.0,0.0,0.0,0.0,
80,38.13230663459583,24.3296683079607,9.5,10.265112411918928,0.0,15.9,0,0,0,0,0.42,-0.21,0.04,13.8,-25.5,-94.0,208,28,False,False,0.0,0.0,0.0,0.0,0.0,0.0,
82,38.132319678434925,24.329661445119232,9.1,11.237155015294642,0.0,16.3,0,0,0,0,0.26,-0.09,0.06,8.700000000000001,-27.3,-95.9,208,12,False,False,0.0,0.0,0.0,0.0,0.0,0.0,
83,38.13232376997593,24.329660158160927,9.0,11.600410181036956,0.0,16.5,0,0,0,0,0.17,-0.05,0.04,2.2,-29.400000000000002,-96.2,208,28,False,False,0.0,0.0,0.0,0.0,0.0,0.0,
84,38.132325610420786,24.329659944769105,9.0,11.779235899282476,0.0,16.7,0,0,0,0,0.09,-0.03,0.03,0.8,-22.900000000000002,-98.60000000000001,208,28,False,False,0.0,0.0,0.0,0.0,0.0,0.0,
85,38.132326931167896,24.329659259073306,8.8,11.88944084669132,0.0,16.9,0,0,0,0,0.06,-0.02,0.09,-2.7,-18.0,-108.4,208,28,False,False,0.0,0.0,0.0,0.0,0.0,0.0,
87,38.13232796261494,24.329658946069348,8.700000000000001,11.983905061205588,0.0,17.3,0,0,0,0,0.01,0.0,0.0,-2.8000000000000003,-7.800000000000001,-111.10000000000001,208,28,False,False,0.0,0.0,0.0,0.0,0.0,0.0,
88,38.13232842147566,24.329659084274173,8.700000000000001,12.035572461206922,0.0,17.5,0,0,0,0,0.01,0.0,0.0,-2.7,-8.0,-108.9,208,28,False,False,0.0,0.0,0.0,0.0,0.0,0.0,
89,38.13232893728496,24.32965873113341,8.700000000000001,12.076296108826389,0.0,17.7,0,0,0,0,0.01,0.0,0.0,-3.0,-7.9,-101.7,208,28,False,False,0.0,0.0,0.0,0.0,0.0,0.0,
90,38.13232925461378,24.32965839322697,8.700000000000001,12.097381166987526,0.0,17.9,0,0,0,0,0.01,0.0,0.0,-1.5,-10.0,-101.7,208,28,False,False,0.0,0.0,0.0,0.0,0.0,0.0,
91,38.132329310568615,24.329658326924786,8.700000000000001,12.100887110435815,0.0,18.1,0,0,0,0,0.0,0.0,0.0,-1.0,-9.9,-101.9,208,28,False,False,0.0,0.0,0.0,0.0,0.0,0.0,
92,38.13232930033192,24.32965841554554,8.700000000000001,12.102824355450593,0.0,18.3,0,0,0,0,0.0,0.0,0.01,-1.3,-9.200000000000001,-103.10000000000001,208,28,False,False,0.0,0.0,0.0,0.0,0.0,0.0,
93,38.13232920468952,24.329658437473434,8.6,12.093753607820181,0.0,18.5,0,0,0,0,0.0,0.0,0.0,-1.3,-8.6,-104.30000000000001,208,28,False,False,0.0,0.0,0.0,0.0,0.0,0.0,
94,38.13232906750073,24.329658535082864,8.6,12.08298698980313,0.0,18.7,0,0,0,0,0.0,0.0,0.0,-1.9000000000000001,-8.700000000000001,-104.2,208,28,False,False,0.0,0.0,0.0,0.0,0.0,0.0,
95,38.13232903388668,24.329658559663894,8.6,12.080373872087629,0.0,18.9,0,0,0,0,0.0,0.0,0.0,-2.1,-8.3,-104.2,208,28,False,False,0.0,0.0,0.0,0.0,0.0,0.0,
96,38.13232901038085,24.329658653155352,8.6,12.081135889866902,0.0,19.1,0,0,0,0,0.0,0.0,0.0,-2.4000000000000004,-7.9,-104.2,208,28,False,False,0.0,0.0,0.0,0.0,0.0,0.0,
97,38.13232891628899,24.329658968186433,8.6,12.082224218217327,0.0,19.3,0,0,0,0,0.0,0.0,0.0,-2.0,-8.9,-104.2,208,28,False,False,0.0,0.0,0.0,0.0,0.0,0.0,
98,38.13232910637449,24.329659081955874,8.700000000000001,12.105568280116755,0.0,19.5,0,0,0,0,0.0,0.0,0.0,-2.4000000000000004,-10.700000000000001,-104.10000000000001,208,28,False,False,0.0,0.0,0.0,0.0,0.0,0.0,
99,38.13232918244294,24.329659337009392,8.700000000000001,12.122077789444054,0.0,19.7,0,0,0,0,0.0,0.0,0.0,-2.6,-10.200000000000001,-104.10000000000001,208,28,False,False,0.0,0.0,0.0,0.0,0.0,0.0,
100,38.13232922032299,24.329659500731783,8.700000000000001,12.131568608432492,0.0,19.9,0,0,0,0,0.0,0.0,0.0,-2.9000000000000004,-10.700000000000001,-104.0,208,28,False,False,0.0,0.0,0.0,0.0,0.0,0.0,
101,4.8685480905182457e-222,5.65590306106821e-130,8.700000000000001,4916453.561634849,0.0,20.1,0,0,0,0,0.0,0.0,0.0,-2.2,-10.700000000000001,-104.0,208,28,False,False,0.0,0.0,0.0,0.0,0.0,0.0,
102,38.13232923264127,24.32965972823796,8.700000000000001,12.140654237445261,0.0,20.3,0,0,0,0,0.0,0.0,0.0,-2.1,-10.9,-104.10000000000001,208,28,False,False,0.0,0.0,0.0,0.0,0.0,0.0,
103,38.13232934951944,24.32965996777535,8.8,12.16086182246395,0.0,20.5,0,0,0,0,0.0,0.0,0.0,-1.8,-10.700000000000001,-104.2,208,28,False,False,0.0,0.0,0.0,0.0,0.0,0.0,
104,38.13232924100192,24.329660143865198,8.8,12.155875784731842,0.0,20.7,0,0,0,0,0.0,0.0,0.0,-1.8,-14.9,-104.2,208,28,False,False,0.0,0.0,0.0,0.0,0.0,0.0,
105,38.13232902709357,24.329660446556122,8.8,12.144583039930263,0.0,20.9,0,0,0,0,-0.02,0.0,0.0,-1.9000000000000001,-19.900000000000002,-103.80000000000001,208,28,False,False,0.0,0.0,0.0,0.0,0.0,0.0,
106,38.13232811344097,24.32966103062542,8.8,12.072128383492068,0.0,21.1,0,0,0,0,-0.06,0.01,0.0,-1.9000000000000001,-23.900000000000002,-103.2,208,28,False,False,0.0,0.0,0.0,0.0,0.0,0.0,
107,38.13232622840744,24.329661839679925,8.8,11.910188712183537,0.0,21.3,0,0,0,0,-0.12,0.03,0.0,-1.6,-28.1,-102.5,208,28,False,False,0.0,0.0,0.0,0.0,0.0,0.0,
108,38.13232338021754,24.329662860057226,8.8,11.661524707356842,0.0,21.5,0,0,0,0,-0.18,0.04,0.0,-0.8,-29.8,-102.10000000000001,208,28,False,False,0.0,0.0,0.0,0.0,0.0,0.0,
109,38.132319191003056,24.329664344881134,8.8,11.302606622982946,0.0,21.7,0,0,0,0,-0.25,0.05,0.0,-0.30000000000000004,-30.0,-101.9,208,12,False,False,0.0,0.0,0.0,0.0,0.0,0.0,
110,38.132314011820505,24.32966626273466,8.8,10.87576986651631,0.0,21.9,0,0,0,0,-0.3,0.07,0.0,-0.30000000000000004,-30.1,-101.80000000000001,208,12,False,False,0.0,0.0,0.0,0.0,0.0,0.0,
111,38.13230783349345,24.329668305980647,8.8,10.377552089201114,0.0,22.1,0,0,0,0,-0.36,0.09,0.0,-0.5,-30.3,-101.80000000000001,208,12,False,False,0.0,0.0,0.0,0.0,0.0,0.0,
112,38.132300655657424,24.329670677823493,8.8,9.831347028326245,0.0,22.3,0,0,0,0,-0.41000000000000003,0.1,0.0,0.0,-30.400000000000002,-101.7,208,12,False,False,0.0,0.0,0.0,0.0,0.0,0.0,
113,38.13229230838105,24.329673247120056,8.8,9.237526033810012,0.0,22.5,0,0,0,0,-0.46,0.11,0.0,-2.5,-29.5,-100.7,208,28,False,False,0.0,0.0,0.0,0.0,0.0,0.0,
114,38.13228360843274,24.3296754737355,8.8,8.659295525099367,0.0,22.7,0,0,0,0,-0.5,0.08,0.0,-19.1,-23.400000000000002,-94.7,208,28,False,False,0.0,0.0,0.0,0.0,0.0,0.0,
115,38.1322741211276,24.329676336310442,8.9,8.011977075123385,0.0,22.9,0,0,0,0,-0.52,0.0,0.0,-24.200000000000003,-19.1,-84.30000000000001,208,28,False,False,0.0,0.0,0.0,0.0,0.0,0.0,
117,38.13225553687252,24.32967064913054,8.9,6.458689196277632,0.0,23.3,0,0,0,0,-0.49,-0.18,0.0,-3.8000000000000003,-25.1,-69.4,208,28,False,False,0.0,0.0,0.0,0.0,0.0,0.0,
118,38.132246657572146,24.329665825547977,8.8,5.672072897878391,0.0,23.5,0,0,0,0,-0.51,-0.22,0.01,-2.3000000000000003,-29.200000000000003,-69.0,208,28,False,False,0.0,0.0,0.0,0.0,0.0,0.0,
119,38.13223726450709,24.329660561521603,8.8,4.9447328353950715,0.0,23.7,0,0,0,0,-0.53,-0.26,0.0,-10.8,-26.900000000000002,-64.5,208,28,False,False,0.0,0.0,0.0,0.0,0.0,0.0,
120,38.132227678834305,24.32965338971744,8.8,4.230873140261289,0.0,23.9,0,0,0,0,-0.51,-0.35000000000000003,-0.01,-24.1,-14.9,-56.7,208,28,False,False,0.0,0.0,0.0,0.0,0.0,0.0,
121,1.0154304283771244e-294,-4.427225413814867e-294,8.8,4916453.561634849,0.0,24.1,0,0,0,0,-0.44,-0.44,-0.02,-25.3,-8.8,-46.800000000000004,208,28,False,False,0.0,0.0,0.0,0.0,0.0,0.0,
122,38.132212322336336,24.329631986785962,8.8,2.9906635487060846,0.0,24.3,0,0,0,0,-0.34,-0.51,-0.01,-16.0,-10.3,-35.6,208,28,False,False,0.0,0.0,0.0,0.0,0.0,0.0,
123,38.132206754698565,24.329619305788608,8.700000000000001,2.758481618677321,0.0,24.5,0,0,0,0,-0.3,-0.54,0.01,2.0,-25.700000000000003,-37.4,208,28,False,False,0.0,0.0,0.0,0.0,0.0,0.0,
124,38.13220131371849,24.32960715109017,8.6,3.0707705637254126,0.0,24.7,0,0,0,0,-0.31,-0.58,0.02,6.4,-28.0,-36.1,208,28,False,False,0.0,0.0,0.0,0.0,0.0,0.0,
125,38.132195099100244,24.329593602323285,8.6,3.88722077315374,0.0,24.9,0,0,0,0,-0.34,-0.61,0.01,11.8,-26.200000000000003,-35.7,208,28,False,False,0.0,0.0,0.0,0.0,0.0,0.0,
126,-2.6589810264382125e-252,-1.9857653817396963e-294,8.5,4916453.561634849,0.0,25.1,0,0,0,0,-0.34,-0.65,-0.01,-14.5,-15.3,-30.400000000000002,208,28,False,False,0.0,0.0,0.0,0.0,0.0,0.0,
127,38.1321834906946,24.329563618676946,8.6,6.212810836561655,0.0,25.3,0,0,0,0,-0.24,-0.7000000000000001,-0.02,-12.100000000000001,-10.0,-21.900000000000002,208,28,False,False,0.0,0.0,0.0,0.0,0.0,0.0,
128,38.132179753649524,24.329546913990214,8.6,7.462432124533074,0.0,25.5,0,0,0,0,-0.19,-0.6900000000000001,-0.01,4.9,5.6000000000000005,-21.900000000000002,208,28,False,False,0.0,0.0,0.0,0.0,0.0,0.0,
129,38.13217674163439,24.329532377009937,8.5,8.602576853321043,0.0,25.7,0,0,0,0,-0.19,-0.63,0.0,22.700000000000003,11.5,-21.0,208,28,False,False,0.0,0.0,0.0,0.0,0.0,0.0,
130,38.13217303961436,24.32951906898908,8.4,9.751778532172338,0.0,25.9,0,0,0,0,-0.2,-0.5700000000000001,0.08,26.900000000000002,12.4,-19.8,208,28,False,False,0.0,0.0,0.0,0.0,0.0,0.0,
132,38.132165170044665,24.32949610444888,7.7,11.87313489906906,0.0,26.3,0,0,0,0,-0.23,-0.44,0.22,26.3,11.9,-19.3,208,28,False,False,0.0,0.0,0.0,0.0,0.0,0.0,
133,38.132160680475344,24.3294871512425,7.300000000000001,12.799595714473263,0.0,26.5,0,0,0,0,-0.27,-0.34,0.19,26.1,9.200000000000001,-19.8,208,28,False,False,0.0,0.0,0.0,0.0,0.0,0.0,
134,38.13215492265428,24.329481102620505,7.1000000000000005,13.606615786348543,0.0,26.7,0,0,0,0,-0.33,-0.24,0.1,29.0,3.5,-20.8,208,28,False,False,0.0,0.0,0.0,0.0,0.0,0.0,
135,38.13214819937543,24.329476867872202,7.1000000000000005,14.358352859557808,0.0,26.9,0,0,0,0,-0.4,-0.16,0.01,30.5,-0.2,-21.5,208,28,False,False,0.0,0.0,0.0,0.0,0.0,0.0,
137,38.13213041446534,24.329472086327133,7.6000000000000005,15.972102500837156,0.0,27.3,0,0,0,0,-0.56,-0.07,-0.18,20.5,-7.1000000000000005,-20.200000000000003,208,28,False,False,0.0,0.0,0.0,0.0,0.0,0.0,
138,38.132119841754026,24.329470446132724,8.1,16.89943652689015,0.0,27.5,0,0,0,0,-0.58,-0.07,-0.29,17.1,-5.0,-15.3,208,28,False,False,0.0,0.0,0.0,0.0,0.0,0.0,
139,38.13210919359103,24.329468487698648,9.5,17.882018802632324,0.0,27.7,0,0,0,0,-0.6,-0.06,-0.38,21.900000000000002,-2.5,-12.700000000000001,208,28,False,False,0.0,0.0,0.0,0.0,0.0,0.0,
140,38.13209821539537,24.329466738817953,11.200000000000001,18.905713855720364,0.0,27.9,0,0,0,0,-0.63,-0.04,-0.44,26.1,-0.5,-13.0,208,28,False,False,0.0,0.0,0.0,0.0,0.0,0.0,
142,38.13207389220411,24.329466362390882,13.9,21.07440635547633,0.0,28.3,0,0,0,0,-0.6900000000000001,0.0,-0.55,20.1,-1.5,-13.0,208,28,False,False,0.0,0.0,0.0,0.0,0.0,0.0,
143,38.13206085977293,24.329466931676443,15.200000000000001,22.248004964301593,0.0,28.5,0,0,0,0,-0.7000000000000001,0.01,-0.58,20.6,-1.3,-11.9,208,28,False,False,0.0,0.0,0.0,0.0,0.0,0.0,
144,38.13204845574929,24.329467700354545,16.5,23.38362485522943,0.0,28.7,0,0,0,0,-0.7000000000000001,0.02,-0.6,22.0,-1.1,-11.600000000000001,208,12,False,False,0.0,0.0,0.0,0.0,0.0,0.0,
145,38.132035771058824,24.329468610444707,17.7,24.565663837953426,0.0,28.9,0,0,0,0,-0.71,0.03,-0.5700000000000001,25.3,-0.6000000000000001,-11.9,208,12,False,False,0.0,0.0,0.0,0.0,0.0,0.0,
147,38.13200967455585,24.32947208117622,19.6,27.006641414127923,0.0,29.3,0,0,0,0,-0.74,0.07,-0.55,27.1,-2.6,-11.8,208,12,False,False,0.0,0.0,0.0,0.0,0.0,0.0,
148,38.13199616573895,24.329474002659143,20.6,28.301252996030886,0.0,29.5,0,0,0,0,-0.75,0.08,-0.55,27.900000000000002,-3.2,-11.700000000000001,208,12,False,False,0.0,0.0,0.0,0.0,0.0,0.0,
149,38.13198263850457,24.329476230108252,21.5,29.60811965908667,0.0,29.7,0,0,0,0,-0.76,0.08,-0.53,30.0,-3.4000000000000004,-11.5,208,12,False,False,0.0,0.0,0.0,0.0,0.0,0.0,
150,38.13196827741244,24.329478654477832,22.400000000000002,31.014600771153773,0.0,29.9,0,0,0,0,-0.79,0.09,-0.52,29.400000000000002,-2.7,-10.9,208,12,False,False,0.0,0.0,0.0,0.0,0.0,0.0,
152,38.13193867130927,24.329483211724156,24.200000000000003,33.983544146019135,0.0,30.3,0,0,0,0,-0.84,0.1,-0.54,26.8,-1.6,-10.100000000000001,208,12,False,False,0.0,0.0,0.0,0.0,0.0,0.0,
153,38.13192271387466,24.329485833231967,25.200000000000003,35.60496691672197,0.0,30.5,0,0,0,0,-0.85,0.1,-0.53,27.8,-2.1,-10.0,208,12,False,False,0.0,0.0,0.0,0.0,0.0,0.0,
154,38.13190747239417,24.329488373366694,26.1,37.1671439125129,0.0,30.7,0,0,0,0,-0.87,0.1,-0.53,28.400000000000002,-1.9000000000000001,-9.5,208,12,False,False,0.0,0.0,0.0,0.0,0.0,0.0,
155,38.13189138076166,24.32949136401603,26.900000000000002,38.82298242087944,0.0,30.9,0,0,0,0,-0.89,0.1,-0.53,28.900000000000002,-0.8,-8.9,208,12,False,False,0.0,0.0,0.0,0.0,0.0,0.0,
156,-2.5190228515607926e-130,5.675998573368295e-175,27.700000000000003,4916453.561634849,0.0,31.1,0,0,0,0,-0.91,0.1,-0.53,26.3,-0.5,-8.6,208,12,False,False,0.0,0.0,0.0,0.0,0.0,0.0,
157,38.131858526757846,24.329496195875034,28.6,42.26748611714875,0.0,31.3,0,0,0,0,-0.92,0.11,-0.53,24.700000000000003,-0.5,-8.4,208,12,False,False,0.0,0.0,0.0,0.0,0.0,0.0,
158,38.131841951782235,24.329498795896097,29.5,44.016565012885984,0.0,31.5,0,0,0,0,-0.92,0.11,-0.52,21.8,-1.6,-8.5,208,12,False,False,0.0,0.0,0.0,0.0,0.0,0.0,
159,38.131825753722474,24.329500915737025,30.400000000000002,45.74141252620994,0.0,31.7,0,0,0,0,-0.89,0.1,-0.56,4.5,-1.4000000000000001,-7.5,208,12,False,False,0.0,0.0,0.0,0.0,0.0,0.0,
160,38.13181105808352,24.329503007622286,31.3,47.30903822872817,0.0,31.9,0,0,0,0,-0.75,0.09,-0.63,-29.700000000000003,-0.1,-7.6000000000000005,208,12,False,False,0.0,0.0,0.0,0.0,0.0,0.0,
161,9.896845952993699e-56,-5.2841790281277285e-254,31.900000000000002,4916453.561634849,0.0,32.1,0,0,0,0,-0.6,0.07,-0.5700000000000001,-31.200000000000003,-0.5,-7.5,208,12,False,False,0.0,0.0,0.0,0.0,0.0,0.0,
162,38.13179057168144,24.329505762254627,32.6,49.50515914701235,0.0,32.3,0,0,0,0,-0.49,0.06,-0.48,-30.400000000000002,-1.3,-6.9,208,12,False,False,0.0,0.0,0.0,0.0,0.0,0.0,
163,38.131783140991665,24.329506770826725,33.2,50.30366503216455,0.0,32.5,0,0,0,0,-0.35000000000000003,0.04,-0.43,-31.1,0.30000000000000004,-7.0,208,12,False,False,0.0,0.0,0.0,0.0,0.0,0.0,
164,38.13177856400051,24.329507555296075,33.9,50.79363031957349,0.0,32.7,0,0,0,0,-0.2,0.03,-0.41000000000000003,-24.8,0.0,-6.5,208,12,False,False,0.0,0.0,0.0,0.0,0.0,0.0,
165,38.13177639077253,24.32950837642241,34.7,51.019918458015844,0.0,32.9,0,0,0,0,-0.09,0.03,-0.4,-3.0,8.4,-6.7,208,12,False,False,0.0,0.0,0.0,0.0,0.0,0.0,
167,38.131774406447875,24.3295114108076,36.5,51.194402409102764,0.0,33.3,0,0,0,0,-0.02,0.06,-0.41000000000000003,7.1000000000000005,-5.0,-6.5,208,12,False,False,0.0,0.0,0.0,0.0,0.0,0.0,
168,38.131773863483524,24.329512562349155,37.5,51.23800420153753,0.0,33.5,0,0,0,0,-0.02,0.05,-0.41000000000000003,3.5,5.6000000000000005,-5.800000000000001,208,12,False,False,0.0,0.0,0.0,0.0,0.0,0.0,
169,38.13177370069017,24.329514022655584,38.400000000000006,51.23587803537862,0.0,33.7,0,0,0,0,0.0,0.08,-0.42,5.9,8.700000000000001,-5.5,208,12,False,False,0.0,0.0,0.0,0.0,0.0,0.0,
170,38.13177412201351,24.329516527646877,39.300000000000004,51.155982412463494,0.0,33.9,0,0,0,0,0.01,0.1,-0.42,9.1,-2.0,-5.800000000000001,208,12,False,False,0.0,0.0,0.0,0.0,0.0,0.0,
171,8.083276904727714e-07,8.454130557107794e-284,40.300000000000004,4916453.482047544,0.0,34.1,0,0,0,0,0.0,0.09,-0.41000000000000003,19.8,-3.0,-5.6000000000000005,208,12,False,False,0.0,0.0,0.0,0.0,0.0,0.0,
172,38.13177390747987,24.32952119186982,41.300000000000004,51.11944272596998,0.0,34.3,0,0,0,0,-0.05,0.08,-0.42,25.900000000000002,-2.7,-5.5,208,12,False,False,0.0,0.0,0.0,0.0,0.0,0.0,
173,38.13177200583677,24.329523345971708,42.400000000000006,51.3021363445626,0.0,34.5,0,0,0,0,-0.13,0.08,-0.43,26.5,-1.4000000000000001,-5.6000000000000005,208,12,False,False,0.0,0.0,0.0,0.0,0.0,0.0,
174,38.1317690577041,24.329525325827532,43.6,51.60309607514704,0.0,34.7,0,0,0,0,-0.19,0.08,-0.45,25.900000000000002,-1.3,-5.4,208,12,False,False,0.0,0.0,0.0,0.0,0.0,0.0,
175,38.13176498314137,24.32952750532615,44.800000000000004,52.02685652941727,0.0,34.9,0,0,0,0,-0.26,0.08,-0.46,26.200000000000003,-1.6,-5.4,208,12,False,False,0.0,0.0,0.0,0.0,0.0,0.0,
177,38.13175343872405,24.329531704713478,47.1,53.254359999824516,0.0,35.3,0,0,0,0,-0.38,0.08,-0.48,26.0,-1.2000000000000002,-4.9,208,12,False,False,0.0,0.0,0.0,0.0,0.0,0.0,
178,38.13174614845269,24.32953383042978,48.300000000000004,54.03744203435003,0.0,35.5,0,0,0,0,-0.43,0.08,-0.49,25.8,-1.3,-4.800000000000001,208,12,False,False,0.0,0.0,0.0,0.0,0.0,0.0,
179,38.13173794141929,24.32953596554996,49.5,54.9231846597791,0.0,35.7,0,0,0,0,-0.48,0.08,-0.5,26.200000000000003,-1.3,-4.7,208,12,False,False,0.0,0.0,0.0,0.0,0.0,0.0,
180,38.13172882728659,24.329538053569102,50.7,55.91115777817446,0.0,35.9,0,0,0,0,-0.53,0.08,-0.51,26.8,-1.5,-4.6000000000000005,208,12,False,False,0.0,0.0,0.0,0.0,0.0,0.0,
181,-1.5619134041175175e-54,-5.7077263468839755e-251,52.0,4916453.561634849,0.0,36.1,0,0,0,0,-0.5700000000000001,0.08,-0.51,27.1,-0.9,-4.3,208,12,False,False,0.0,0.0,0.0,0.0,0.0,0.0,
182,38.13170827512963,24.32954232949428,53.2,58.14789358536406,0.0,36.3,0,0,0,0,-0.61,0.08,-0.51,28.3,-0.8,-4.2,208,12,False,False,0.0,0.0,0.0,0.0,0.0,0.0,
183,38.131696408929386,24.32954443510107,54.400000000000006,59.444895891860774,0.0,36.5,0,0,0,0,-0.66,0.07,-0.51,27.700000000000003,-0.30000000000000004,-4.0,208,12,False,False,0.0,0.0,0.0,0.0,0.0,0.0,
184,38.1316843347394,24.329546340962068,55.5,60.76794281304021,0.0,36.7,0,0,0,0,-0.7000000000000001,0.07,-0.52,25.8,0.0,-3.8000000000000003,208,12,False,False,0.0,0.0,0.0,0.0,0.0,0.0,
185,38.13167147927182,24.329548256014203,56.6,62.17880800940065,0.0,36.9,0,0,0,0,-0.73,0.07,-0.53,24.400000000000002,-0.2,-3.6,208,12,False,False,0.0,0.0,0.0,0.0,0.0,0.0,
187,38.13164440681398,24.329552042785505,58.7,65.15555119895875,0.0,37.3,0,0,0,0,-0.77,0.07,-0.55,24.400000000000002,0.0,-3.4000000000000004,208,12,False,False,0.0,0.0,0.0,0.0,0.0,0.0,
188,38.131630302761394,24.329553945879947,59.7,66.70861137531567,0.0,37.5,0,0,0,0,-0.79,0.07,-0.5700000000000001,24.3,-0.9,-3.6,208,12,False,False,0.0,0.0,0.0,0.0,0.0,0.0,
189,38.13161589930058,24.32955589398994,60.7,68.29575282883171,0.0,37.7,0,0,0,0,-0.8,0.07,-0.56,26.5,-0.7000000000000001,-3.6,208,12,False,False,0.0,0.0,0.0,0.0,0.0,0.0,
190,38.13160134616994,24.329557778194967,61.7,69.90091288828756,0.0,37.9,0,0,0,0,-0.8200000000000001,0.07,-0.55,28.400000000000002,-1.3,-3.7,208,12,False,False,0.0,0.0,0.0,0.0,0.0,0.0,
192,38.131570505547685,24.32956163370113,63.7,73.30627333948767,0.0,38.3,0,0,0,0,-0.87,0.07,-0.55,28.1,-1.5,-3.7,208,12,False,False,0.0,0.0,0.0,0.0,0.0,0.0,
193,38.13155428658741,24.32956345430023,64.7,75.09949605537551,0.0,38.5,0,0,0,0,-0.88,0.07,-0.53,29.1,-1.1,-3.5,208,12,False,False,0.0,0.0,0.0,0.0,0.0,0.0,
194,38.131538482095074,24.329565027208716,65.7,76.84847172948807,0.0,38.7,0,0,0,0,-0.9,0.06,-0.52,28.6,-0.8,-3.4000000000000004,208,12,False,False,0.0,0.0,0.0,0.0,0.0,0.0,
195,38.13152217061789,24.329566356351148,66.60000000000001,78.65529998250405,0.0,38.9,0,0,0,0,-0.91,0.06,-0.51,25.1,0.0,-3.1,208,12,False,False,0.0,0.0,0.0,0.0,0.0,0.0,
196,6.977426438242822e-260,-1.0301566159093226e-299,67.5,4916453.561634849,0.0,39.1,0,0,0,0,-0.9,0.05,-0.54,11.600000000000001,0.30000000000000004,-2.7,208,12,False,False,0.0,0.0,0.0,0.0,0.0,0.0,
197,38.131490156622256,24.329568850163536,68.10000000000001,82.20325292844633,0.0,39.3,0,0,0,0,-0.8300000000000001,0.05,-0.6,-9.0,0.9,-3.1,208,12,False,False,0.0,0.0,0.0,0.0,0.0,0.0,
198,38.13147675459224,24.329569857216555,68.7,83.68911984270306,0.0,39.5,0,0,0,0,-0.6900000000000001,0.04,-0.59,-30.0,-0.1,-2.8000000000000003,208,12,False,False,0.0,0.0,0.0,0.0,0.0,0.0,
199,38.131465921757496,24.32957073063329,69.2,84.89013807281043,0.0,39.7,0,0,0,0,-0.58,0.03,-0.51,-30.1,0.1,-2.7,208,12,False,False,0.0,0.0,0.0,0.0,0.0,0.0,
200,38.13145662290161,24.32957120771517,69.60000000000001,85.92203786494167,0.0,39.9,0,0,0,0,-0.49,0.02,-0.4,-30.700000000000003,0.2,-2.8000000000000003,208,12,False,False,0.0,0.0,0.0,0.0,0.0,0.0,
202,38.13144231860354,24.329572250652102,70.10000000000001,87.50863955805296,0.0,40.3,0,0,0,0,-0.3,0.01,-0.22,-30.6,0.0,-2.8000000000000003,208,12,False,False,0.0,0.0,0.0,0.0,0.0,0.0,
203,38.13143765204335,24.329572716652873,70.2,88.02594170765558,0.0,40.5,0,0,0,0,-0.21,0.01,-0.14,-31.3,-0.7000000000000001,-2.6,208,12,False,False,0.0,0.0,0.0,0.0,0.0,0.0,
204,38.13143457044764,24.32957273853187,70.60000000000001,88.36836220797112,0.0,40.7,0,0,0,0,-0.14,0.0,-0.06,-22.3,-0.30000000000000004,-2.9000000000000004,208,12,False,False,0.0,0.0,0.0,0.0,0.0,0.0,
205,38.13143270848341,24.32957288608068,70.60000000000001,88.57488686555327,0.0,40.9,0,0,0,0,-0.08,0.0,0.0,-16.900000000000002,-0.7000000000000001,-2.7,208,12,False,False,0.0,0.0,0.0,0.0,0.0,0.0,
206,-5.592102546304232e-281,-4.537174575276385e-156,70.60000000000001,4916453.561634849,0.0,41.1,0,0,0,0,-0.02,0.0,0.01,-9.200000000000001,-1.1,-2.7,208,12,False,False,0.0,0.0,0.0,0.0,0.0,0.0,
207,38.1314319949473,24.32957270249019,70.60000000000001,88.65469935956975,0.0,41.3,0,0,0,0,0.01,-0.01,0.01,0.4,0.6000000000000001,-2.9000000000000004,208,12,False,False,0.0,0.0,0.0,0.0,0.0,0.0,
208,38.13143260712709,24.329572730712673,70.60000000000001,88.58658397070944,0.0,41.5,0,0,0,0,0.03,0.0,0.0,9.3,2.0,-2.8000000000000003,208,12,False,False,0.0,0.0,0.0,0.0,0.0,0.0,
209,38.13143323835828,24.329572920712117,70.60000000000001,88.51590100563071,0.0,41.7,0,0,0,0,0.03,0.01,0.02,6.2,10.700000000000001,-3.2,208,12,False,False,0.0,0.0,0.0,0.0,0.0,0.0,
210,38.13143416228171,24.329573506512848,70.5,88.41160393801562,0.0,41.9,0,0,0,0,0.04,0.02,0.1,5.7,4.9,-11.700000000000001,208,12,False,False,0.0,0.0,0.0,0.0,0.0,0.0,
212,38.13143706994728,24.32957523716269,69.9,88.08383446903655,0.0,42.3,0,0,0,0,0.08,0.06,0.14,8.0,17.2,-29.6,208,12,False,False,0.0,0.0,0.0,0.0,0.0,0.0,
213,38.13143902716804,24.329577938361695,69.8,87.85960498594342,0.0,42.5,0,0,0,0,0.11,0.15,0.05,18.1,17.6,-30.6,208,12,False,False,0.0,0.0,0.0,0.0,0.0,0.0,
214,38.13144112282017,24.329583010382276,69.8,87.6157850499677,0.0,42.7,0,0,0,0,0.11,0.24,0.0,18.6,18.0,-30.8,208,12,False,False,0.0,0.0,0.0,0.0,0.0,0.0,
215,38.131443448733116,24.329589650419837,69.8,87.34633716982317,0.0,42.9,0,0,0,0,0.12,0.31,0.0,15.3,19.700000000000003,-31.400000000000002,208,12,False,False,0.0,0.0,0.0,0.0,0.0,0.0,
217,38.1314490869823,24.329607377003835,69.8,86.70925894726247,0.0,43.3,0,0,0,0,0.17,0.43,0.0,13.5,22.6,-31.8,208,12,False,False,0.0,0.0,0.0,0.0,0.0,0.0,
218,38.13145273422558,24.329617815758397,69.8,86.31069555730413,0.0,43.5,0,0,0,0,0.2,0.5,0.0,14.0,23.5,-31.400000000000002,208,12,False,False,0.0,0.0,0.0,0.0,0.0,0.0,
219,38.13145707609011,24.329630066203467,69.9,85.84857733934831,0.0,43.7,0,0,0,0,0.23,0.56,0.0,14.700000000000001,23.6,-31.200000000000003,208,12,False,False,0.0,0.0,0.0,0.0,0.0,0.0,
220,38.131461669323215,24.32964365269396,69.9,85.37674451982184,0.0,43.9,0,0,0,0,0.26,0.62,0.0,14.600000000000001,23.900000000000002,-31.1,208,12,False,False,0.0,0.0,0.0,0.0,0.0,0.0,
222,38.13147240107515,24.32967544844629,70.0,84.34172660432881,0.0,44.3,0,0,0,0,0.31,0.73,0.0,14.0,23.1,-31.3,208,12,False,False,0.0,0.0,0.0,0.0,0.0,0.0,
223,38.13147833695086,24.329692963853002,70.0,83.81012676605542,0.0,44.5,0,0,0,0,0.33,0.78,0.0,12.700000000000001,22.8,-31.6,208,12,False,False,0.0,0.0,0.0,0.0,0.0,0.0,
224,38.131484706623105,24.329711008491714,70.10000000000001,83.26574209593065,0.0,44.7,0,0,0,0,0.36,0.8200000000000001,0.0,9.0,21.8,-32.5,208,12,False,False,0.0,0.0,0.0,0.0,0.0,0.0,
225,38.13149182930395,24.329730073681166,70.10000000000001,82.68269655205212,0.0,44.9,0,0,0,0,0.4,0.84,0.0,1.6,20.400000000000002,-32.7,208,12,False,False,0.0,0.0,0.0,0.0,0.0,0.0,
227,38.131509134194005,24.32976943941465,70.10000000000001,81.31353176058678,0.0,45.3,0,0,0,0,0.52,0.84,0.0,-6.7,16.8,-30.8,208,12,False,False,0.0,0.0,0.0,0.0,0.0,0.0,
228,38.13151921504604,24.329788010668477,70.10000000000001,80.51755087320937,0.0,45.5,0,0,0,0,0.58,0.8300000000000001,0.0,-7.2,16.5,-30.900000000000002,208,12,False,False,0.0,0.0,0.0,0.0,0.0,0.0,
229,38.13153037367397,24.32980687977751,70.10000000000001,79.65136363426859,0.0,45.7,0,0,0,0,0.64,0.8200000000000001,0.0,-9.0,14.5,-31.0,208,12,False,False,0.0,0.0,0.0,0.0,0.0,0.0,
230,38.131542527289994,24.32982547959272,70.0,78.71671691374982,0.0,45.9,0,0,0,0,0.7000000000000001,0.8,0.0,-11.4,11.8,-31.1,208,12,False,False,0.0,0.0,0.0,0.0,0.0,0.0,
232,38.13157025760294,24.329860276580057,70.0,76.56239081817279,0.0,46.3,0,0,0,0,0.8,0.73,0.0,-10.700000000000001,10.4,-31.0,208,12,False,False,0.0,0.0,0.0,0.0,0.0,0.0,
233,38.13158599637199,24.32987719163208,70.0,75.34436006030829,0.0,46.5,0,0,0,0,0.85,0.71,0.0,-10.4,10.5,-30.900000000000002,208,12,False,False,0.0,0.0,0.0,0.0,0.0,0.0,
234,38.131601445191585,24.329892474151148,70.0,74.15892686340833,0.0,46.7,0,0,0,0,0.9,0.68,0.0,-10.9,10.4,-31.0,208,12,False,False,0.0,0.0,0.0,0.0,0.0,0.0,
235,38.13161842264642,24.32990752292317,70.10000000000001,72.85333583822609,0.0,46.9,0,0,0,0,0.97,0.64,-0.07,-16.0,10.700000000000001,-31.900000000000002,208,12,False,False,0.0,0.0,0.0,0.0,0.0,0.0,
236,-25.041017078214434,-1.0697109127268645e-306,70.4,7468923.367781243,0.0,47.1,0,0,0,0,1.03,0.61,-0.14,0.7000000000000001,10.4,-29.8,208,12,False,False,0.0,0.0,0.0,0.0,0.0,0.0,
237,38.131655348506015,24.329935368406296,70.7,70.01317374206998,0.0,47.3,0,0,0,0,1.02,0.6,-0.07,0.4,12.5,-29.8,208,12,False,False,0.0,0.0,0.0,0.0,0.0,0.0,
238,38.13167387631675,24.32994930395494,70.8,68.66754952245108,0.0,47.5,0,0,0,0,1.03,0.59,-0.03,-13.8,12.200000000000001,-31.1,208,12,False,False,0.0,0.0,0.0,0.0,0.0,0.0,
239,38.131693361699156,24.32996229371479,70.9,67.2473912917212,0.0,47.7,0,0,0,0,1.09,0.56,-0.11,-5.5,9.5,-30.8,208,12,False,False,0.0,0.0,0.0,0.0,0.0,0.0,
240,38.13171343469336,24.329974593915292,71.3,65.80094844452086,0.0,47.9,0,0,0,0,1.11,0.54,-0.2,-11.200000000000001,7.7,-30.900000000000002,208,12,False,False,0.0,0.0,0.0,0.0,0.0,0.0,
242,38.131755186206085,24.329995596428976,72.10000000000001,62.77953332726617,0.0,48.3,0,0,0,0,1.16,0.4,-0.17,-12.3,-7.800000000000001,-35.9,208,12,False,False,0.0,0.0,0.0,0.0,0.0,0.0,
243,38.13177648013103,24.330003767418162,72.4,61.21094888566592,0.0,48.5,0,0,0,0,1.16,0.34,-0.09,-24.900000000000002,-18.1,-34.6,208,12,False,False,0.0,0.0,0.0,0.0,0.0,0.0,
244,38.13179677776958,24.330009927736246,72.5,59.68811929248056,0.0,48.7,0,0,0,0,1.1500000000000001,0.24,-0.03,-20.3,-21.900000000000002,-41.2,208,12,False,False,0.0,0.0,0.0,0.0,0.0,0.0,
245,38.131817119916086,24.330013182533538,72.60000000000001,58.0574702008624,0.0,48.9,0,0,0,0,1.12,0.08,-0.08,-19.3,-23.400000000000002,-45.5,208,12,False,False,0.0,0.0,0.0,0.0,0.0,0.0,
247,38.131855903833824,24.33001133573809,72.9,54.61550278422754,0.0,49.3,0,0,0,0,1.05,-0.1,-0.03,-16.5,-7.800000000000001,-61.2,208,12,False,False,0.0,0.0,0.0,0.0,0.0,0.0,
248,38.13187467567823,24.330008268127408,72.9,52.868479787260185,0.0,49.5,0,0,0,0,1.04,-0.16,0.0,-24.0,-12.0,-58.900000000000006,208,12,False,False,0.0,0.0,0.0,0.0,0.0,0.0,
249,38.13189378212555,24.33000341169911,72.9,51.01426698474615,0.0,49.7,0,0,0,0,1.03,-0.25,0.0,-20.6,-6.300000000000001,-61.0,208,12,False,False,0.0,0.0,0.0,0.0,0.0,0.0,
250,38.13191256418316,24.329996703879285,72.8,49.09825183826386,0.0,49.9,0,0,0,0,1.04,-0.3,0.0,-14.9,2.5,-62.2,208,12,False,False,0.0,0.0,0.0,0.0,0.0,0.0,
251,5.285902611217771e-37,4.323447277169568e-282,72.8,4916453.561634849,0.0,50.1,0,0,0,0,1.06,-0.33,0.0,-8.0,12.4,-62.6,208,12,False,False,0.0,0.0,0.0,0.0,0.0,0.0,
252,38.13195160835371,24.329981601492936,72.9,45.114572986760635,0.0,50.3,0,0,0,0,1.12,-0.32,-0.09,-7.300000000000001,7.0,-61.7,208,12,False,False,0.0,0.0,0.0,0.0,0.0,0.0,
253,38.131972590507964,24.3299738169563,73.2,43.04086722340744,0.0,50.5,0,0,0,0,1.1300000000000001,-0.34,-0.13,-9.200000000000001,0.2,-61.6,208,12,False,False,0.0,0.0,0.0,0.0,0.0,0.0,
254,38.13199232059697,24.329966161472573,73.3,41.10401033524143,0.0,50.7,0,0,0,0,1.12,-0.35000000000000003,-0.05,-11.700000000000001,1.0,-61.800000000000004,208,12,False,False,0.0,0.0,0.0,0.0,0.0,0.0,
255,38.132012376404845,24.329957635913363,73.3,39.12341076026983,0.0,50.9,0,0,0,0,1.1300000000000001,-0.37,-0.02,-12.4,1.6,-61.900000000000006,208,12,False,False,0.0,0.0,0.0,0.0,0.0,0.0,
256,1.7997896077544863e-222,-6.030245791759429e-197,73.4,4916453.561634849,0.0,51.1,0,0,0,0,1.1400000000000001,-0.4,-0.08,-13.4,5.9,-62.900000000000006,208,12,False,False,0.0,0.0,0.0,0.0,0.0,0.0,
257,38.132053546179655,24.329938887326488,73.7,35.11020808954432,0.0,51.3,0,0,0,0,1.16,-0.43,-0.11,-15.5,4.6000000000000005,-62.6,208,12,False,False,0.0,0.0,0.0,0.0,0.0,0.0,
258,38.13207481727189,24.329928521327414,73.8,33.075188389446595,0.0,51.5,0,0,0,0,1.16,-0.45,-0.06,-14.5,1.0,-62.7,208,12,False,False,0.0,0.0,0.0,0.0,0.0,0.0,
259,38.13209583629318,24.329917601093253,73.9,31.08404671720293,0.0,51.7,0,0,0,0,1.17,-0.47000000000000003,-0.01,-14.100000000000001,1.3,-63.5,208,12,False,False,0.0,0.0,0.0,0.0,0.0,0.0,
260,38.13211693490967,24.32990630851768,73.9,29.142404779958046,0.0,51.9,0,0,0,0,1.17,-0.5,0.0,-16.3,-9.600000000000001,-62.400000000000006,208,12,False,False,0.0,0.0,0.0,0.0,0.0,0.0,
261,-4.34086164262085e-40,-2.912772282732467e-99,73.8,4916453.561634849,0.0,52.1,0,0,0,0,1.1300000000000001,-0.55,0.0,-10.3,-4.9,-65.9,208,12,False,False,0.0,0.0,0.0,0.0,0.0,0.0,
262,38.13215749232338,24.329881206657124,73.8,25.425574208895192,0.0,52.3,0,0,0,0,1.11,-0.5700000000000001,0.0,-18.400000000000002,-16.900000000000002,-64.4,208,12,False,False,0.0,0.0,0.0,0.0,0.0,0.0,
263,38.13217744700248,24.329867030127474,73.7,23.617645707013928,0.0,52.5,0,0,0,0,1.05,-0.61,0.05,2.5,-24.3,-76.4,208,12,False,False,0.0,0.0,0.0,0.0,0.0,0.0,
264,38.13219449686899,24.329853953155276,73.60000000000001,22.104116240459202,0.0,52.7,0,0,0,0,0.93,-0.56,0.0,20.3,-23.900000000000002,-80.5,208,12,False,False,0.0,0.0,0.0,0.0,0.0,0.0,
265,38.13220968766872,24.32984222934079,73.5,20.855021547875705,0.0,52.9,0,0,0,0,0.81,-0.49,0.0,18.400000000000002,-24.8,-79.0,208,12,False,False,0.0,0.0,0.0,0.0,0.0,0.0,
266,-2.1198207121792005e-07,-7.57440538097934e-20,73.5,4916453.582506437,0.0,53.1,0,0,0,0,0.7000000000000001,-0.43,0.0,18.7,-24.8,-79.4,208,12,False,False,0.0,0.0,0.0,0.0,0.0,0.0,
267,38.13223439499576,24.32982252026152,73.5,19.031577805512146,0.0,53.3,0,0,0,0,0.6,-0.38,0.0,9.9,-28.1,-76.80000000000001,208,12,False,False,0.0,0.0,0.0,0.0,0.0,0.0,
268,38.13224373733488,24.32981355320219,73.5,18.312068869443614,0.0,53.5,0,0,0,0,0.5,-0.38,0.01,-1.5,-29.200000000000003,-79.10000000000001,208,12,False,False,0.0,0.0,0.0,0.0,0.0,0.0,
269,38.13225131556484,24.32980427400284,73.5,17.603462642179107,0.0,53.7,0,0,0,0,0.39,-0.39,0.01,-7.0,-28.700000000000003,-83.0,208,12,False,False,0.0,0.0,0.0,0.0,0.0,0.0,
270,38.13225721038059,24.329794179351083,73.5,16.840137346333233,0.0,53.9,0,0,0,0,0.3,-0.42,0.0,-4.5,-29.0,-90.30000000000001,208,12,False,False,0.0,0.0,0.0,0.0,0.0,0.0,
272,38.13226461429672,24.329774444417342,73.5,15.340303061276773,0.0,54.3,0,0,0,0,0.14,-0.43,0.0,-6.6000000000000005,-16.6,-92.9,208,12,False,False,0.0,0.0,0.0,0.0,0.0,0.0,
273,38.132266860809004,24.32976418160769,73.5,14.545727821551363,0.0,54.5,0,0,0,0,0.11,-0.43,0.0,-4.800000000000001,-10.200000000000001,-93.9,208,12,False,False,0.0,0.0,0.0,0.0,0.0,0.0,
274,38.132269052489086,24.329754239997825,73.5,13.792958676814852,0.0,54.7,0,0,0,0,0.1,-0.43,0.0,-6.9,-13.700000000000001,-93.2,208,12,False,False,0.0,0.0,0.0,0.0,0.0,0.0,
275,38.13227076779642,24.32974432302419,73.5,13.042256271424693,0.0,54.9,0,0,0,0,0.08,-0.44,0.0,-5.0,-13.100000000000001,-93.30000000000001,208,12,False,False,0.0,0.0,0.0,0.0,0.0,0.0,
277,38.13227282670144,24.32972474860299,73.60000000000001,11.554357980566145,0.0,55.3,0,0,0,0,0.04,-0.36,0.0,24.700000000000003,-13.200000000000001,-94.30000000000001,208,12,False,False,0.0,0.0,0.0,0.0,0.0,0.0,
278,38.1322734838756,24.3297177313098,73.60000000000001,11.033903239719042,0.0,55.5,0,0,0,0,0.03,-0.26,0.0,25.700000000000003,-13.700000000000001,-95.10000000000001,208,12,False,False,0.0,0.0,0.0,0.0,0.0,0.0,
279,38.13227395140113,24.329713349137492,73.7,10.717122501992641,0.0,55.7,0,0,0,0,0.02,-0.16,0.0,25.3,-14.8,-95.7,208,12,False,False,0.0,0.0,0.0,0.0,0.0,0.0,
280,38.13227416650017,24.329711170689574,73.7,10.560463264464467,0.0,55.9,0,0,0,0,0.01,-0.07,0.0,16.3,-14.5,-93.30000000000001,208,12,False,False,0.0,0.0,0.0,0.0,0.0,0.0,
282,38.132273611341766,24.32970954317691,73.7,10.40591252988729,0.0,56.3,0,0,0,0,0.0,-0.01,0.0,3.2,-10.700000000000001,-92.80000000000001,208,12,False,False,0.0,0.0,0.0,0.0,0.0,0.0,
283,38.132273437300896,24.329708998819534,73.8,10.354843145883548,0.0,56.5,0,0,0,0,0.0,0.0,0.0,2.0,-10.0,-93.5,208,12,False,False,0.0,0.0,0.0,0.0,0.0,0.0,
284,38.13227315967669,24.329708602196092,73.8,10.309616016204721,0.0,56.7,0,0,0,0,0.0,0.0,0.0,2.0,-10.0,-93.80000000000001,208,12,False,False,0.0,0.0,0.0,0.0,0.0,0.0,
285,38.132272867177164,24.329708393307044,73.8,10.278049980388838,0.0,56.9,0,0,0,0,0.0,0.0,0.0,2.8000000000000003,-9.1,-93.9,208,12,False,False,0.0,0.0,0.0,0.0,0.0,0.0,
287,38.13227248671919,24.329708296915967,73.8,10.250556520469157,0.0,57.3,0,0,0,0,0.0,0.0,0.0,2.4000000000000004,-9.9,-93.7,208,12,False,False,0.0,0.0,0.0,0.0,0.0,0.0,
288,38.13227240581079,24.32970819248234,73.8,10.238253794056481,0.0,57.5,0,0,0,0,0.0,0.0,0.0,2.4000000000000004,-10.3,-93.80000000000001,208,12,False,False,0.0,0.0,0.0,0.0,0.0,0.0,
289,38.132272514880796,24.329708291862808,73.8,10.251648821111727,0.0,57.7,0,0,0,0,0.0,0.0,0.0,2.8000000000000003,-10.4,-93.9,208,12,False,False,0.0,0.0,0.0,0.0,0.0,0.0,
290,38.13227237012371,24.32970837116136,73.8,10.25015534180826,0.0,57.9,0,0,0,0,0.0,0.0,0.0,2.3000000000000003,-10.100000000000001,-93.80000000000001,208,12,False,False,0.0,0.0,0.0,0.0,0.0,0.0,
291,5.110014477020211e-294,-5.839900776062186e-276,73.8,4916453.561634849,0.0,58.1,0,0,0,0,0.0,0.0,0.0,2.2,-9.5,-93.80000000000001,208,12,False,False,0.0,0.0,0.0,0.0,0.0,0.0,
292,38.13227190981099,24.329708854521503,73.8,10.263489573822223,0.0,58.3,0,0,0,0,0.0,0.01,0.0,1.5,-9.0,-93.80000000000001,208,12,False,False,0.0,0.0,0.0,0.0,0.0,0.0,
293,38.132271688981156,24.329708950972467,73.8,10.25953761822135,0.0,58.5,0,0,0,0,0.0,0.0,0.0,1.4000000000000001,-8.6,-93.80000000000001,208,12,False,False,0.0,0.0,0.0,0.0,0.0,0.0,
294,38.132271718427695,24.32970892778678,73.7,10.259261089502965,0.0,58.7,0,0,0,0,0.0,0.0,0.0,2.0,-8.4,-93.9,208,12,False,False,0.0,0.0,0.0,0.0,0.0,0.0,
295,38.13227159208808,24.32970892538,73.7,10.252559381165664,0.0,58.9,0,0,0,0,0.0,0.0,0.0,2.1,-9.0,-93.80000000000001,208,12,False,False,0.0,0.0,0.0,0.0,0.0,0.0,
296,-3.3874286345471356e-81,3.442672307631706e-228,73.7,4916453.561634849,0.0,59.1,0,0,0,0,0.0,0.0,0.0,2.2,-9.200000000000001,-93.80000000000001,208,12,False,False,0.0,0.0,0.0,0.0,0.0,0.0,
297,38.13227152119793,24.32970885704265,73.7,10.243611616084621,0.0,59.3,0,0,0,0,0.0,0.0,0.0,2.1,-9.1,-93.80000000000001,208,12,False,False,0.0,0.0,0.0,0.0,0.0,0.0,
298,38.132271558970885,24.32970885087323,73.7,10.24507820715567,0.0,59.5,0,0,0,0,0.0,0.0,0.0,1.9000000000000001,-9.0,-93.7,208,12,False,False,0.0,0.0,0.0,0.0,0.0,0.0,
299,38.132271589758055,24.329708816051134,73.7,10.243965700885704,0.0,59.7,0,0,0,0,0.0,0.0,0.0,2.3000000000000003,-8.9,-93.80000000000001,208,12,False,False,0.0,0.0,0.0,0.0,0.0,0.0,
300,38.13227143811368,24.32970878305862,73.7,10.233600627744298,0.0,59.9,0,0,0,0,0.0,0.0,0.0,2.3000000000000003,-8.700000000000001,-93.80000000000001,208,12,False,False,0.0,0.0,0.0,0.0,0.0,0.0,
302,38.13227139017684,24.329708691257867,73.7,10.224016546410628,0.0,60.3,0,0,0,0,0.01,0.0,0.0,1.8,-8.8,-93.7,208,12,False,False,0.0,0.0,0.0,0.0,0.0,0.0,
303,38.132271350159485,24.329708771438533,73.7,10.228180240499642,0.0,60.5,0,0,0,0,0.01,0.0,0.0,1.1,-9.3,-93.7,208,12,False,False,0.0,0.0,0.0,0.0,0.0,0.0,
304,38.132271429127655,24.329708912812464,73.8,10.24320298442601,0.0,60.7,0,0,0,0,0.01,0.0,0.0,1.1,-9.8,-93.7,208,12,False,False,0.0,0.0,0.0,0.0,0.0,0.0,
305,38.13227142840809,24.32970895440296,73.8,10.246392579021766,0.0,60.9,0,0,0,0,0.01,0.0,0.0,1.5,-10.5,-93.60000000000001,208,12,False,False,0.0,0.0,0.0,0.0,0.0,0.0,
307,38.13227120828926,24.32970904598589,73.8,10.242227720174796,0.0,61.3,0,0,0,0,0.0,0.0,0.0,1.1,-9.3,-93.7,208,12,False,False,0.0,0.0,0.0,0.0,0.0,0.0,
308,38.132271300556546,24.329709005577005,73.8,10.243808993752747,0.0,61.5,0,0,0,0,0.0,0.0,0.0,0.0,-9.200000000000001,-93.7,208,12,False,False,0.0,0.0,0.0,0.0,0.0,0.0,
309,38.13227130126326,24.329709185753476,73.8,10.257836624133104,0.0,61.7,0,0,0,0,0.0,0.0,0.0,0.0,-9.0,-94.0,208,12,False,False,0.0,0.0,0.0,0.0,0.0,0.0,
310,38.1322713467116,24.329709190621493,73.8,10.26053950564124,0.0,61.9,0,0,0,0,0.01,0.0,0.0,0.0,-9.200000000000001,-94.0,208,12,False,False,0.0,0.0,0.0,0.0,0.0,0.0,
311,5.623302437272705e-181,1.691222142567339e-67,73.8,4916453.561634849,0.0,62.1,0,0,0,0,0.0,0.0,0.0,-0.30000000000000004,-9.3,-93.9,208,12,False,False,0.0,0.0,0.0,0.0,0.0,0.0,
312,38.13227127035188,24.329709301061182,73.8,10.265214683143373,0.0,62.3,0,0,0,0,0.0,0.0,0.0,-1.2000000000000002,-9.3,-93.9,208,12,False,False,0.0,0.0,0.0,0.0,0.0,0.0,
313,38.132271267362256,24.32970924658734,73.8,10.260829678102285,0.0,62.5,0,0,0,0,0.0,0.0,0.0,-1.3,-9.1,-94.10000000000001,208,12,False,False,0.0,0.0,0.0,0.0,0.0,0.0,
314,38.13227107741382,24.32970925209245,73.8,10.251572979780091,0.0,62.7,0,0,0,0,0.0,0.0,0.0,-0.9,-8.8,-94.0,208,12,False,False,0.0,0.0,0.0,0.0,0.0,0.0,
315,38.132271049333596,24.329709091889015,73.8,10.23768624519842,0.0,62.9,0,0,0,0,0.0,0.0,0.0,-0.8,-8.700000000000001,-93.9,208,12,False,False,0.0,0.0,0.0,0.0,0.0,0.0,
317,38.13227121185283,24.32970884749723,73.8,10.226994146086307,0.0,63.3,0,0,0,0,0.0,0.0,0.0,-0.5,-8.8,-93.80000000000001,208,12,False,False,0.0,0.0,0.0,0.0,0.0,0.0,
318,38.13227126227817,24.32970873251079,73.8,10.220650720547843,0.0,63.5,0,0,0,0,0.0,0.0,0.0,0.6000000000000001,-9.0,-93.9,208,12,False,False,0.0,0.0,0.0,0.0,0.0,0.0,
319,38.13227133751998,24.32970844612012,73.8,10.202298864156015,0.0,63.7,0,0,0,0,0.01,0.0,0.0,0.9,-9.600000000000001,-93.7,208,12,False,False,0.0,0.0,0.0,0.0,0.0,0.0,
320,38.13227135324765,24.32970824341139,73.9,10.187395466584112,0.0,63.9,0,0,0,0,0.0,0.0,0.0,0.6000000000000001,-10.600000000000001,-93.5,208,12,False,False,0.0,0.0,0.0,0.0,0.0,0.0,
322,38.132271850553686,24.32970769781798,73.9,10.170997623007288,0.0,64.3,0,0,0,0,0.06,-0.01,0.0,0.5,14.0,-92.9,208,12,False,False,0.0,0.0,0.0,0.0,0.0,0.0,
323,38.132273446479374,24.329707324592597,74.0,10.226992653717712,0.0,64.5,0,0,0,0,0.11,-0.01,0.0,0.0,1.5,-92.60000000000001,208,12,False,False,0.0,0.0,0.0,0.0,0.0,0.0,
324,38.13227572870032,24.329706812421872,74.0,10.313652690120039,0.0,64.7,0,0,0,0,0.12,-0.02,0.0,-3.3000000000000003,-7.5,-92.80000000000001,208,12,False,False,0.0,0.0,0.0,0.0,0.0,0.0,
325,38.132277935464785,24.329705979267285,73.9,10.377677538062727,0.0,64.9,0,0,0,0,0.12,-0.03,0.0,-6.4,-5.800000000000001,-93.5,208,12,False,False,0.0,0.0,0.0,0.0,0.0,0.0,
326,3.5174744612720366e-154,1.8597900525692248e-63,74.0,4916453.561634849,0.0,65.1,0,0,0,0,0.13,-0.06,-0.04,-8.200000000000001,-7.1000000000000005,-92.80000000000001,208,12,False,False,0.0,0.0,0.0,0.0,0.0,0.0,
327,38.13228222777832,24.329702602057136,74.0,10.392426015705048,0.0,65.3,0,0,0,0,0.12,-0.08,-0.01,-8.5,-13.700000000000001,-92.7,208,12,False,False,0.0,0.0,0.0,0.0,0.0,0.0,
328,38.13228405047448,24.329700023642946,74.0,10.327159496238508,0.0,65.5,0,0,0,0,0.1,-0.11,0.0,-9.1,-13.100000000000001,-92.9,208,12,False,False,0.0,0.0,0.0,0.0,0.0,0.0,
329,38.132285403118516,24.329697115684287,73.9,10.215526569558223,0.0,65.7,0,0,0,0,0.08,-0.13,0.0,-7.800000000000001,-6.7,-93.4,208,12,False,False,0.0,0.0,0.0,0.0,0.0,0.0,
330,38.13228689776959,24.329693645693375,73.9,10.083527128640677,0.0,65.9,0,0,0,0,0.09,-0.15,0.0,-7.0,-4.3,-94.2,208,12,False,False,0.0,0.0,0.0,0.0,0.0,0.0,
332,38.132290247827335,24.329685225165143,73.9,9.785178684289843,0.0,66.3,0,0,0,0,0.08,-0.19,0.0,-4.9,-13.8,-94.2,208,12,False,False,0.0,0.0,0.0,0.0,0.0,0.0,
333,38.13229167100581,24.329680538015207,73.8,9.610009520560702,0.0,66.5,0,0,0,0,0.06,-0.2,0.0,-5.1000000000000005,-14.0,-94.60000000000001,208,12,False,False,0.0,0.0,0.0,0.0,0.0,0.0,
334,38.13229230209989,24.32967582753303,73.8,9.384336581239753,0.0,66.7,0,0,0,0,0.04,-0.2,0.0,-4.6000000000000005,-11.8,-94.80000000000001,208,12,False,False,0.0,0.0,0.0,0.0,0.0,0.0,
335,38.13229272460551,24.32967088160188,73.8,9.141178189543918,0.0,66.9,0,0,0,0,0.03,-0.21,0.0,-4.0,-9.9,-94.7,208,12,False,False,0.0,0.0,0.0,0.0,0.0,0.0,
337,38.13229389169965,24.329661138454448,73.8,8.736814179092764,0.0,67.3,0,0,0,0,0.02,-0.18,0.0,12.4,-11.100000000000001,-94.60000000000001,208,12,False,False,0.0,0.0,0.0,0.0,0.0,0.0,
338,38.13229424786371,24.329657741818522,73.9,8.606918113080779,0.0,67.5,0,0,0,0,0.0,-0.14,0.0,6.2,-22.900000000000002,-92.9,208,12,False,False,0.0,0.0,0.0,0.0,0.0,0.0,
339,38.1322937752885,24.329654990963782,74.0,8.435503512169914,0.0,67.7,0,0,0,0,-0.04,-0.12,0.0,2.7,-29.3,-92.30000000000001,208,12,False,False,0.0,0.0,0.0,0.0,0.0,0.0,
340,38.13229195305061,24.329652486473375,74.10000000000001,8.14913914875601,0.0,67.9,0,0,0,0,-0.11,-0.1,0.0,1.4000000000000001,-30.3,-92.30000000000001,208,12,False,False,0.0,0.0,0.0,0.0,0.0,0.0,
342,38.13228470937629,24.329648131218487,74.2,7.262421088048169,0.0,68.3,0,0,0,0,-0.24,-0.08,0.0,1.4000000000000001,-30.3,-92.60000000000001,208,12,False,False,0.0,0.0,0.0,0.0,0.0,0.0,
343,38.132279210157066,24.329646513566328,74.3,6.669187966411326,0.0,68.5,0,0,0,0,-0.33,-0.07,-0.04,1.2000000000000002,-25.400000000000002,-92.4,208,12,False,False,0.0,0.0,0.0,0.0,0.0,0.0,
344,38.13227260958599,24.32964504997629,74.5,5.990775893976317,0.0,68.7,0,0,0,0,-0.36,-0.06,-0.11,4.2,-2.7,-92.60000000000001,208,12,False,False,0.0,0.0,0.0,0.0,0.0,0.0,
345,38.13226648402075,24.329643933038348,74.7,5.3902814768441765,0.0,68.9,0,0,0,0,-0.31,-0.05,-0.06,3.7,7.9,-93.30000000000001,208,12,False,False,0.0,0.0,0.0,0.0,0.0,0.0,
347,38.13225721488376,24.32964067961823,74.8,4.432057078294199,0.0,69.3,0,0,0,0,-0.21,-0.08,0.0,-11.0,1.5,-92.0,208,28,False,False,0.0,0.0,0.0,0.0,0.0,0.0,
348,38.13225370285876,24.329638435202707,74.8,4.018649228969722,0.0,69.5,0,0,0,0,-0.17,-0.11,0.0,-5.6000000000000005,-3.7,-88.5,208,12,False,False,0.0,0.0,0.0,0.0,0.0,0.0,
349,38.132250573706855,24.329635593466453,74.9,3.5999545102547934,0.0,69.7,0,0,0,0,-0.15,-0.12,0.0,-3.6,-9.5,-89.0,208,12,False,False,0.0,0.0,0.0,0.0,0.0,0.0,
350,38.132247583124006,24.329632569289014,74.8,3.1815479733324588,0.0,69.9,0,0,0,0,-0.15,-0.13,0.0,-2.1,-10.5,-90.0,208,12,False,False,0.0,0.0,0.0,0.0,0.0,0.0,
351,1.4382147256834178e-256,1.0568877252384117e-293,74.8,4916453.561634849,0.0,70.1,0,0,0,0,-0.14,-0.15,0.0,-7.300000000000001,-0.8,-89.30000000000001,208,28,False,False,0.0,0.0,0.0,0.0,0.0,0.0,
352,38.132242101886725,24.329625930247133,74.8,2.3451196840100845,0.0,70.3,0,0,0,0,-0.11,-0.17,0.0,-3.0,-4.1000000000000005,-85.60000000000001,208,28,False,False,0.0,0.0,0.0,0.0,0.0,0.0,
353,38.1322401725328,24.32962177261024,74.8,1.9282737102733016,0.0,70.5,0,0,0,0,-0.09,-0.17,0.0,2.6,0.0,-85.80000000000001,208,28,False,False,0.0,0.0,0.0,0.0,0.0,0.0,
354,38.132238981527195,24.32961796220072,74.8,1.593373225339017,0.0,70.7,0,0,0,0,-0.05,-0.16,0.0,4.3,10.0,-85.2,208,12,False,False,0.0,0.0,0.0,0.0,0.0,0.0,
355,38.13223881911352,24.329614405186625,74.9,1.3755727567635645,0.0,70.9,0,0,0,0,0.02,-0.14,0.0,4.6000000000000005,19.200000000000003,-85.0,208,12,False,False,0.0,0.0,0.0,0.0,0.0,0.0,
357,38.13224345249318,24.32960874823666,74.8,1.6525134946213658,0.0,71.3,0,0,0,0,0.19,-0.1,0.0,5.5,8.3,-86.30000000000001,208,12,False,False,0.0,0.0,0.0,0.0,0.0,0.0,
358,38.13224737004365,24.329606427227255,74.7,2.05957797837033,0.0,71.5,0,0,0,0,0.22,-0.09,0.0,5.2,-3.5,-85.7,208,12,False,False,0.0,0.0,0.0,0.0,0.0,0.0,
359,38.13225101920124,24.32960441105622,74.7,2.462393247286771,0.0,71.7,0,0,0,0,0.21,-0.07,0.0,8.8,-19.6,-87.10000000000001,208,12,False,False,0.0,0.0,0.0,0.0,0.0,0.0,
360,38.13225393305616,24.329602997144114,74.7,2.7915139251300496,0.0,71.9,0,0,0,0,0.15,-0.05,0.0,11.9,-26.8,-85.60000000000001,208,12,False,False,0.0,0.0,0.0,0.0,0.0,0.0,
362,38.132255991681745,24.32960166297842,74.60000000000001,3.029137663724019,0.0,72.3,0,0,0,0,0.02,-0.01,0.0,7.0,-16.400000000000002,-83.4,208,28,False,False,0.0,0.0,0.0,0.0,0.0,0.0,
363,38.132256153250175,24.329601046089522,74.60000000000001,3.0527229669896445,0.0,72.5,0,0,0,0,0.0,0.0,0.0,5.5,-9.200000000000001,-84.60000000000001,208,28,False,False,0.0,0.0,0.0,0.0,0.0,0.0,
364,38.13225627865817,24.329600844899986,74.60000000000001,3.0686314922258124,0.0,72.7,0,0,0,0,0.01,0.0,0.0,4.1000000000000005,5.800000000000001,-85.2,208,28,False,False,0.0,0.0,0.0,0.0,0.0,0.0,
365,38.132257258352155,24.329600875693973,74.60000000000001,3.176503061016814,0.0,72.9,0,0,0,0,0.07,0.0,0.0,2.4000000000000004,20.700000000000003,-85.30000000000001,208,28,False,False,0.0,0.0,0.0,0.0,0.0,0.0,
367,38.13226455794965,24.329601758950105,74.60000000000001,3.977590850491152,0.0,73.3,0,0,0,0,0.27,0.02,0.0,3.0,9.0,-86.2,208,28,False,False,0.0,0.0,0.0,0.0,0.0,0.0,
368,38.1322698477275,24.329602496246117,74.7,4.560848517320619,0.0,73.5,0,0,0,0,0.28,0.02,-0.07,4.3,-18.7,-86.60000000000001,208,12,False,False,0.0,0.0,0.0,0.0,0.0,0.0,
369,38.132274090764994,24.329603311298293,74.9,5.029493742560324,0.0,73.7,0,0,0,0,0.18,0.02,-0.14,2.8000000000000003,-29.8,-85.30000000000001,208,28,False,False,0.0,0.0,0.0,0.0,0.0,0.0,
370,38.132276271621855,24.32960412794332,75.10000000000001,5.270322633266479,0.0,73.9,0,0,0,0,0.12,0.01,-0.08,0.8,-30.8,-87.5,208,28,False,False,0.0,0.0,0.0,0.0,0.0,0.0,
372,38.13227865623137,24.329604685418232,75.3,5.534961068142588,0.0,74.3,0,0,0,0,0.02,0.0,0.0,0.7000000000000001,-20.400000000000002,-93.60000000000001,208,12,False,False,0.0,0.0,0.0,0.0,0.0,0.0,
373,38.13227873283106,24.329604854734228,75.3,5.543415032358981,0.0,74.5,0,0,0,0,-0.02,0.0,0.0,2.9000000000000004,-28.5,-93.5,208,12,False,False,0.0,0.0,0.0,0.0,0.0,0.0,
374,38.13227759801481,24.329604911240494,75.3,5.417217141466105,0.0,74.7,0,0,0,0,-0.09,0.0,0.0,4.0,-29.6,-92.7,208,12,False,False,0.0,0.0,0.0,0.0,0.0,0.0,
375,38.1322751534636,24.329605014696668,75.3,5.145384016671443,0.0,74.9,0,0,0,0,-0.16,0.0,0.0,5.1000000000000005,-29.5,-92.60000000000001,208,12,False,False,0.0,0.0,0.0,0.0,0.0,0.0,
377,38.13226626956204,24.32960577309974,75.4,4.158031234062788,0.0,75.3,0,0,0,0,-0.28,0.0,-0.01,-3.3000000000000003,-16.5,-88.4,208,12,False,False,0.0,0.0,0.0,0.0,0.0,0.0,
378,38.13226118680795,24.32960587304386,75.4,3.5930985786882492,0.0,75.5,0,0,0,0,-0.28,-0.01,-0.01,1.4000000000000001,-1.7000000000000002,-86.60000000000001,208,12,False,False,0.0,0.0,0.0,0.0,0.0,0.0,
379,38.13225631209717,24.329605315755444,75.4,3.0504135115666453,0.0,75.7,0,0,0,0,-0.24,-0.01,0.0,4.6000000000000005,12.9,-85.80000000000001,208,28,False,False,0.0,0.0,0.0,0.0,0.0,0.0,
380,38.13225269091367,24.329605320594837,75.4,2.6477745008484423,0.0,75.9,0,0,0,0,-0.16,0.0,0.0,4.5,10.9,-86.2,208,28,False,False,0.0,0.0,0.0,0.0,0.0,0.0,
382,38.13224841832211,24.32960558902991,75.4,2.1730993184077594,0.0,76.3,0,0,0,0,-0.06,0.01,0.0,2.6,18.0,-85.7,208,12,False,False,0.0,0.0,0.0,0.0,0.0,0.0,
383,38.13224820092287,24.329605743175524,75.3,2.149274338547488,0.0,76.5,0,0,0,0,0.02,0.02,0.0,2.6,22.700000000000003,-86.80000000000001,208,12,False,False,0.0,0.0,0.0,0.0,0.0,0.0,
